[
	{
		"state_abr": "AK",
		"fips": 2130,
		"county": "Ketchikan Gateway",
		"square_km": "17.232,65",
		"lat": 55.449938,
		"lng": -131.106685
	},
	{
		"state_abr": "AK",
		"fips": 2275,
		"county": "Wrangell",
		"square_km": "8.966,69",
		"lat": 56.279121,
		"lng": -132.040326
	},
	{
		"state_abr": "AK",
		"fips": 2198,
		"county": "Prince of Wales-Hyder[4]",
		"square_km": "19.899,61",
		"lat": 55.415683,
		"lng": -132.875734
	},
	{
		"state_abr": "AK",
		"fips": 2195,
		"county": "Petersburg[4]",
		"square_km": "14.721,66",
		"lat": 56.639612,
		"lng": -133.527996
	},
	{
		"state_abr": "AK",
		"fips": 2110,
		"county": "Juneau",
		"square_km": "8.427,54",
		"lat": 58.3727,
		"lng": -134.178781
	},
	{
		"state_abr": "AK",
		"fips": 2105,
		"county": "Hoonah-Angoon[4]",
		"square_km": "28.267,52",
		"lat": 58.076434,
		"lng": -135.1851
	},
	{
		"state_abr": "AK",
		"fips": 2220,
		"county": "Sitka",
		"square_km": "12.461,55",
		"lat": 57.142509,
		"lng": -135.332624
	},
	{
		"state_abr": "AK",
		"fips": 2230,
		"county": "Skagway",
		"square_km": "1.201,85",
		"lat": 59.575097,
		"lng": -135.335418
	},
	{
		"state_abr": "AK",
		"fips": 2100,
		"county": "Haines",
		"square_km": "7.059,02",
		"lat": 59.099905,
		"lng": -135.578102
	},
	{
		"state_abr": "AK",
		"fips": 2282,
		"county": "Yakutat",
		"square_km": "24.508,71",
		"lat": 59.999083,
		"lng": -140.239593
	},
	{
		"state_abr": "AK",
		"fips": 2240,
		"county": "Southeast Fairbanks[4]",
		"square_km": "64.903,71",
		"lat": 63.864997,
		"lng": -143.218628
	},
	{
		"state_abr": "AK",
		"fips": 2261,
		"county": "Valdez-Cordova[4]",
		"square_km": "104.480,57",
		"lat": 61.34984,
		"lng": -145.023141
	},
	{
		"state_abr": "AK",
		"fips": 290,
		"county": "Fairbanks North Star",
		"square_km": "19.279,06",
		"lat": 64.690832,
		"lng": -146.599867
	},
	{
		"state_abr": "AK",
		"fips": 220,
		"county": "Anchorage",
		"square_km": "5.078,97",
		"lat": 61.177549,
		"lng": -149.274354
	},
	{
		"state_abr": "AK",
		"fips": 2170,
		"county": "Matanuska-Susitna",
		"square_km": "65.416,90",
		"lat": 62.182174,
		"lng": -149.407974
	},
	{
		"state_abr": "AK",
		"fips": 268,
		"county": "Denali",
		"square_km": "33.092,07",
		"lat": 63.682732,
		"lng": -150.026719
	},
	{
		"state_abr": "AK",
		"fips": 2290,
		"county": "Yukon-Koyukuk[4]",
		"square_km": "382.812,22",
		"lat": 65.376131,
		"lng": -151.576855
	},
	{
		"state_abr": "AK",
		"fips": 2122,
		"county": "Kenai Peninsula",
		"square_km": "64.108,21",
		"lat": 60.366373,
		"lng": -152.321973
	},
	{
		"state_abr": "AK",
		"fips": 2185,
		"county": "North Slope",
		"square_km": "245.521,23",
		"lat": 69.449343,
		"lng": -153.47283
	},
	{
		"state_abr": "AK",
		"fips": 2150,
		"county": "Kodiak Island",
		"square_km": "31.136,39",
		"lat": 57.553611,
		"lng": -153.630911
	},
	{
		"state_abr": "AK",
		"fips": 2164,
		"county": "Lake and Peninsula",
		"square_km": "85.268,88",
		"lat": 58.205065,
		"lng": -156.705188
	},
	{
		"state_abr": "AK",
		"fips": 260,
		"county": "Bristol Bay",
		"square_km": "2.298,78",
		"lat": 58.731373,
		"lng": -156.986612
	},
	{
		"state_abr": "AK",
		"fips": 270,
		"county": "Dillingham[4]",
		"square_km": "54.170,14",
		"lat": 59.824816,
		"lng": -158.602233
	},
	{
		"state_abr": "AK",
		"fips": 2188,
		"county": "Northwest Arctic",
		"square_km": "105.539,25",
		"lat": 67.005066,
		"lng": -160.021086
	},
	{
		"state_abr": "AK",
		"fips": 250,
		"county": "Bethel[4]",
		"square_km": "117.855,35",
		"lat": 60.928916,
		"lng": -160.15335
	},
	{
		"state_abr": "AK",
		"fips": 213,
		"county": "Aleutians East",
		"square_km": "38.875,36",
		"lat": 55.243722,
		"lng": -161.950749
	},
	{
		"state_abr": "AK",
		"fips": 2270,
		"county": "Wade Hampton[4]",
		"square_km": "50.952,71",
		"lat": 62.283174,
		"lng": -163.19095
	},
	{
		"state_abr": "AK",
		"fips": 2180,
		"county": "Nome [4]",
		"square_km": "73.238,70",
		"lat": 64.783686,
		"lng": -164.188912
	},
	{
		"state_abr": "AK",
		"fips": 216,
		"county": "Aleutians West[4]",
		"square_km": "36.561,41",
		"lat": 51.959447,
		"lng": -178.338813
	},
	{
		"state_abr": "AL",
		"fips": 1113,
		"county": "Russell",
		"square_km": "1.676,22",
		"lat": 32.289811,
		"lng": -85.18698
	},
	{
		"state_abr": "AL",
		"fips": 167,
		"county": "Henry",
		"square_km": "1.471,91",
		"lat": 31.516978,
		"lng": -85.239971
	},
	{
		"state_abr": "AL",
		"fips": 169,
		"county": "Houston",
		"square_km": "1.506,48",
		"lat": 31.158193,
		"lng": -85.296398
	},
	{
		"state_abr": "AL",
		"fips": 181,
		"county": "Lee",
		"square_km": "1.595,04",
		"lat": 32.604064,
		"lng": -85.353048
	},
	{
		"state_abr": "AL",
		"fips": 117,
		"county": "Chambers",
		"square_km": "1.562,06",
		"lat": 32.917943,
		"lng": -85.391812
	},
	{
		"state_abr": "AL",
		"fips": 15,
		"county": "Barbour",
		"square_km": "2.342,68",
		"lat": 31.87067,
		"lng": -85.405456
	},
	{
		"state_abr": "AL",
		"fips": 1111,
		"county": "Randolph",
		"square_km": "1.512,90",
		"lat": 33.296475,
		"lng": -85.464068
	},
	{
		"state_abr": "AL",
		"fips": 129,
		"county": "Cleburne",
		"square_km": "1.453,02",
		"lat": 33.671981,
		"lng": -85.516109
	},
	{
		"state_abr": "AL",
		"fips": 145,
		"county": "Dale",
		"square_km": "1.457,39",
		"lat": 31.430654,
		"lng": -85.609476
	},
	{
		"state_abr": "AL",
		"fips": 119,
		"county": "Cherokee",
		"square_km": "1.553,94",
		"lat": 34.069515,
		"lng": -85.654242
	},
	{
		"state_abr": "AL",
		"fips": 187,
		"county": "Macon",
		"square_km": "1.588,20",
		"lat": 32.387027,
		"lng": -85.692887
	},
	{
		"state_abr": "AL",
		"fips": 111,
		"county": "Bullock",
		"square_km": "1.619,11",
		"lat": 32.101759,
		"lng": -85.717261
	},
	{
		"state_abr": "AL",
		"fips": 1123,
		"county": "Tallapoosa",
		"square_km": "1.984,59",
		"lat": 32.863369,
		"lng": -85.799553
	},
	{
		"state_abr": "AL",
		"fips": 149,
		"county": "DeKalb",
		"square_km": "2.016,79",
		"lat": 34.460929,
		"lng": -85.803992
	},
	{
		"state_abr": "AL",
		"fips": 115,
		"county": "Calhoun",
		"square_km": "1.585,81",
		"lat": 33.771706,
		"lng": -85.822513
	},
	{
		"state_abr": "AL",
		"fips": 161,
		"county": "Geneva",
		"square_km": "1.499,48",
		"lat": 31.090866,
		"lng": -85.824346
	},
	{
		"state_abr": "AL",
		"fips": 127,
		"county": "Clay",
		"square_km": "1.569,54",
		"lat": 33.267809,
		"lng": -85.862051
	},
	{
		"state_abr": "AL",
		"fips": 1109,
		"county": "Pike",
		"square_km": "1.743,08",
		"lat": 31.798726,
		"lng": -85.941997
	},
	{
		"state_abr": "AL",
		"fips": 171,
		"county": "Jackson",
		"square_km": "2.918,32",
		"lat": 34.763522,
		"lng": -85.9774
	},
	{
		"state_abr": "AL",
		"fips": 131,
		"county": "Coffee",
		"square_km": "1.762,47",
		"lat": 31.402183,
		"lng": -85.989201
	},
	{
		"state_abr": "AL",
		"fips": 155,
		"county": "Etowah",
		"square_km": "1.420,94",
		"lat": 34.047638,
		"lng": -86.03442
	},
	{
		"state_abr": "AL",
		"fips": 151,
		"county": "Elmore",
		"square_km": "1.701,73",
		"lat": 32.597229,
		"lng": -86.142739
	},
	{
		"state_abr": "AL",
		"fips": 1121,
		"county": "Talladega",
		"square_km": "1.969,18",
		"lat": 33.369277,
		"lng": -86.175805
	},
	{
		"state_abr": "AL",
		"fips": 1101,
		"county": "Montgomery",
		"square_km": "2.071,76",
		"lat": 32.203651,
		"lng": -86.203831
	},
	{
		"state_abr": "AL",
		"fips": 137,
		"county": "Coosa",
		"square_km": "1.725,84",
		"lat": 32.931445,
		"lng": -86.243482
	},
	{
		"state_abr": "AL",
		"fips": 1115,
		"county": "St. Clair",
		"square_km": "1.692,92",
		"lat": 33.712963,
		"lng": -86.315663
	},
	{
		"state_abr": "AL",
		"fips": 141,
		"county": "Crenshaw",
		"square_km": "1.582,26",
		"lat": 31.732826,
		"lng": -86.319222
	},
	{
		"state_abr": "AL",
		"fips": 195,
		"county": "Marshall",
		"square_km": "1.614,03",
		"lat": 34.309564,
		"lng": -86.321668
	},
	{
		"state_abr": "AL",
		"fips": 139,
		"county": "Covington",
		"square_km": "2.703,40",
		"lat": 31.243987,
		"lng": -86.448721
	},
	{
		"state_abr": "AL",
		"fips": 189,
		"county": "Madison",
		"square_km": "2.104,89",
		"lat": 34.764238,
		"lng": -86.55108
	},
	{
		"state_abr": "AL",
		"fips": 19,
		"county": "Blount",
		"square_km": "1.685,12",
		"lat": 33.977448,
		"lng": -86.567246
	},
	{
		"state_abr": "AL",
		"fips": 11,
		"county": "Autauga",
		"square_km": "1.565,36",
		"lat": 32.536382,
		"lng": -86.64449
	},
	{
		"state_abr": "AL",
		"fips": 185,
		"county": "Lowndes",
		"square_km": "1.877,92",
		"lat": 32.147888,
		"lng": -86.650586
	},
	{
		"state_abr": "AL",
		"fips": 1117,
		"county": "Shelby",
		"square_km": "2.096,66",
		"lat": 33.262937,
		"lng": -86.678104
	},
	{
		"state_abr": "AL",
		"fips": 113,
		"county": "Butler",
		"square_km": "2.014,70",
		"lat": 31.751667,
		"lng": -86.681969
	},
	{
		"state_abr": "AL",
		"fips": 121,
		"county": "Chilton",
		"square_km": "1.815,07",
		"lat": 32.85406,
		"lng": -86.726628
	},
	{
		"state_abr": "AL",
		"fips": 1103,
		"county": "Morgan",
		"square_km": "1.551,54",
		"lat": 34.454484,
		"lng": -86.846402
	},
	{
		"state_abr": "AL",
		"fips": 143,
		"county": "Cullman",
		"square_km": "1.955,50",
		"lat": 34.131923,
		"lng": -86.869267
	},
	{
		"state_abr": "AL",
		"fips": 173,
		"county": "Jefferson",
		"square_km": "2.910,67",
		"lat": 33.553444,
		"lng": -86.896536
	},
	{
		"state_abr": "AL",
		"fips": 183,
		"county": "Limestone",
		"square_km": "1.572,61",
		"lat": 34.810239,
		"lng": -86.9814
	},
	{
		"state_abr": "AL",
		"fips": 135,
		"county": "Conecuh",
		"square_km": "2.208,54",
		"lat": 31.428293,
		"lng": -86.992029
	},
	{
		"state_abr": "AL",
		"fips": 147,
		"county": "Dallas",
		"square_km": "2.573,94",
		"lat": 32.33354,
		"lng": -87.114356
	},
	{
		"state_abr": "AL",
		"fips": 17,
		"county": "Bibb",
		"square_km": "1.621,77",
		"lat": 33.015893,
		"lng": -87.127148
	},
	{
		"state_abr": "AL",
		"fips": 153,
		"county": "Escambia",
		"square_km": "2.468,62",
		"lat": 31.121748,
		"lng": -87.168429
	},
	{
		"state_abr": "AL",
		"fips": 1105,
		"county": "Perry",
		"square_km": "1.874,84",
		"lat": 32.639005,
		"lng": -87.293827
	},
	{
		"state_abr": "AL",
		"fips": 1127,
		"county": "Walker",
		"square_km": "2.085,44",
		"lat": 33.791571,
		"lng": -87.301092
	},
	{
		"state_abr": "AL",
		"fips": 1131,
		"county": "Wilcox",
		"square_km": "2.350,19",
		"lat": 31.99033,
		"lng": -87.302205
	},
	{
		"state_abr": "AL",
		"fips": 179,
		"county": "Lawrence",
		"square_km": "1.857,54",
		"lat": 34.529776,
		"lng": -87.321865
	},
	{
		"state_abr": "AL",
		"fips": 1133,
		"county": "Winston",
		"square_km": "1.636,53",
		"lat": 34.155888,
		"lng": -87.364147
	},
	{
		"state_abr": "AL",
		"fips": 199,
		"county": "Monroe",
		"square_km": "2.679,13",
		"lat": 31.580332,
		"lng": -87.383266
	},
	{
		"state_abr": "AL",
		"fips": 1125,
		"county": "Tuscaloosa",
		"square_km": "3.499,73",
		"lat": 33.290202,
		"lng": -87.52286
	},
	{
		"state_abr": "AL",
		"fips": 165,
		"county": "Hale",
		"square_km": "1.700,33",
		"lat": 32.752796,
		"lng": -87.623061
	},
	{
		"state_abr": "AL",
		"fips": 177,
		"county": "Lauderdale",
		"square_km": "1.867,36",
		"lat": 34.904122,
		"lng": -87.650997
	},
	{
		"state_abr": "AL",
		"fips": 13,
		"county": "Baldwin",
		"square_km": "5.250,71",
		"lat": 30.659218,
		"lng": -87.746067
	},
	{
		"state_abr": "AL",
		"fips": 157,
		"county": "Fayette",
		"square_km": "1.630,02",
		"lat": 33.732249,
		"lng": -87.752049
	},
	{
		"state_abr": "AL",
		"fips": 191,
		"county": "Marengo",
		"square_km": "2.545,11",
		"lat": 32.247591,
		"lng": -87.791091
	},
	{
		"state_abr": "AL",
		"fips": 133,
		"county": "Colbert",
		"square_km": "1.611,31",
		"lat": 34.703112,
		"lng": -87.801457
	},
	{
		"state_abr": "AL",
		"fips": 125,
		"county": "Clarke",
		"square_km": "3.244,15",
		"lat": 31.685521,
		"lng": -87.818624
	},
	{
		"state_abr": "AL",
		"fips": 159,
		"county": "Franklin",
		"square_km": "1.674,49",
		"lat": 34.441988,
		"lng": -87.842815
	},
	{
		"state_abr": "AL",
		"fips": 193,
		"county": "Marion",
		"square_km": "1.925,84",
		"lat": 34.138219,
		"lng": -87.881551
	},
	{
		"state_abr": "AL",
		"fips": 163,
		"county": "Greene",
		"square_km": "1.709,24",
		"lat": 32.844497,
		"lng": -87.964201
	},
	{
		"state_abr": "AL",
		"fips": 175,
		"county": "Lamar",
		"square_km": "1.568,15",
		"lat": 33.787085,
		"lng": -88.087431
	},
	{
		"state_abr": "AL",
		"fips": 1107,
		"county": "Pickens",
		"square_km": "2.305,42",
		"lat": 33.296809,
		"lng": -88.096878
	},
	{
		"state_abr": "AL",
		"fips": 197,
		"county": "Mobile",
		"square_km": "4.257,97",
		"lat": 30.684573,
		"lng": -88.196568
	},
	{
		"state_abr": "AL",
		"fips": 1119,
		"county": "Sumter",
		"square_km": "2.365,49",
		"lat": 32.597481,
		"lng": -88.200057
	},
	{
		"state_abr": "AL",
		"fips": 1129,
		"county": "Washington",
		"square_km": "2.819,37",
		"lat": 31.406974,
		"lng": -88.202078
	},
	{
		"state_abr": "AL",
		"fips": 123,
		"county": "Choctaw",
		"square_km": "2.385,01",
		"lat": 31.991008,
		"lng": -88.248887
	},
	{
		"state_abr": "AR",
		"fips": 593,
		"county": "Mississippi",
		"square_km": "2.382,30",
		"lat": 35.766943,
		"lng": -90.052209
	},
	{
		"state_abr": "AR",
		"fips": 535,
		"county": "Crittenden",
		"square_km": "1.648,21",
		"lat": 35.211878,
		"lng": -90.315331
	},
	{
		"state_abr": "AR",
		"fips": 521,
		"county": "Clay",
		"square_km": "1.661,31",
		"lat": 36.367302,
		"lng": -90.418704
	},
	{
		"state_abr": "AR",
		"fips": 555,
		"county": "Greene",
		"square_km": "1.501,06",
		"lat": 36.119922,
		"lng": -90.565241
	},
	{
		"state_abr": "AR",
		"fips": 531,
		"county": "Craighead",
		"square_km": "1.845,82",
		"lat": 35.828268,
		"lng": -90.630411
	},
	{
		"state_abr": "AR",
		"fips": 5111,
		"county": "Poinsett",
		"square_km": "1.977,74",
		"lat": 35.568981,
		"lng": -90.680595
	},
	{
		"state_abr": "AR",
		"fips": 5123,
		"county": "St. Francis",
		"square_km": "1.664,10",
		"lat": 35.014438,
		"lng": -90.742199
	},
	{
		"state_abr": "AR",
		"fips": 537,
		"county": "Cross",
		"square_km": "1.611,77",
		"lat": 35.291259,
		"lng": -90.773894
	},
	{
		"state_abr": "AR",
		"fips": 577,
		"county": "Lee",
		"square_km": "1.604,50",
		"lat": 34.77975,
		"lng": -90.779288
	},
	{
		"state_abr": "AR",
		"fips": 5107,
		"county": "Phillips",
		"square_km": "1.883,81",
		"lat": 34.425842,
		"lng": -90.848386
	},
	{
		"state_abr": "AR",
		"fips": 5121,
		"county": "Randolph",
		"square_km": "1.699,13",
		"lat": 36.341299,
		"lng": -91.028441
	},
	{
		"state_abr": "AR",
		"fips": 575,
		"county": "Lawrence",
		"square_km": "1.534,16",
		"lat": 36.041098,
		"lng": -91.101153
	},
	{
		"state_abr": "AR",
		"fips": 595,
		"county": "Monroe",
		"square_km": "1.609,15",
		"lat": 34.679513,
		"lng": -91.203314
	},
	{
		"state_abr": "AR",
		"fips": 567,
		"county": "Jackson",
		"square_km": "1.661,48",
		"lat": 35.596605,
		"lng": -91.223178
	},
	{
		"state_abr": "AR",
		"fips": 5147,
		"county": "Woodruff",
		"square_km": "1.538,49",
		"lat": 35.189071,
		"lng": -91.244418
	},
	{
		"state_abr": "AR",
		"fips": 541,
		"county": "Desha",
		"square_km": "2.122,56",
		"lat": 33.828748,
		"lng": -91.244427
	},
	{
		"state_abr": "AR",
		"fips": 517,
		"county": "Chicot",
		"square_km": "1.789,13",
		"lat": 33.267139,
		"lng": -91.297158
	},
	{
		"state_abr": "AR",
		"fips": 51,
		"county": "Arkansas",
		"square_km": "2.677,40",
		"lat": 34.289574,
		"lng": -91.376547
	},
	{
		"state_abr": "AR",
		"fips": 5135,
		"county": "Sharp",
		"square_km": "1.570,66",
		"lat": 36.173399,
		"lng": -91.471069
	},
	{
		"state_abr": "AR",
		"fips": 5117,
		"county": "Prairie",
		"square_km": "1.749,83",
		"lat": 34.828225,
		"lng": -91.5572
	},
	{
		"state_abr": "AR",
		"fips": 563,
		"county": "Independence",
		"square_km": "1.998,22",
		"lat": 35.737499,
		"lng": -91.559942
	},
	{
		"state_abr": "AR",
		"fips": 543,
		"county": "Drew",
		"square_km": "2.164,35",
		"lat": 33.587242,
		"lng": -91.722778
	},
	{
		"state_abr": "AR",
		"fips": 579,
		"county": "Lincoln",
		"square_km": "1.481,95",
		"lat": 33.957665,
		"lng": -91.727624
	},
	{
		"state_abr": "AR",
		"fips": 5145,
		"county": "White",
		"square_km": "2.699,14",
		"lat": 35.254722,
		"lng": -91.753158
	},
	{
		"state_abr": "AR",
		"fips": 53,
		"county": "Ashley",
		"square_km": "2.435,95",
		"lat": 33.190835,
		"lng": -91.772267
	},
	{
		"state_abr": "AR",
		"fips": 549,
		"county": "Fulton",
		"square_km": "1.606,64",
		"lat": 36.383443,
		"lng": -91.819239
	},
	{
		"state_abr": "AR",
		"fips": 585,
		"county": "Lonoke",
		"square_km": "2.079,35",
		"lat": 34.755114,
		"lng": -91.894132
	},
	{
		"state_abr": "AR",
		"fips": 565,
		"county": "Izard",
		"square_km": "1.512,60",
		"lat": 36.094879,
		"lng": -91.913625
	},
	{
		"state_abr": "AR",
		"fips": 569,
		"county": "Jefferson",
		"square_km": "2.366,67",
		"lat": 34.277696,
		"lng": -91.930701
	},
	{
		"state_abr": "AR",
		"fips": 523,
		"county": "Cleburne",
		"square_km": "1.533,07",
		"lat": 35.566288,
		"lng": -92.059974
	},
	{
		"state_abr": "AR",
		"fips": 5137,
		"county": "Stone",
		"square_km": "1.578,42",
		"lat": 35.856989,
		"lng": -92.140494
	},
	{
		"state_abr": "AR",
		"fips": 511,
		"county": "Bradley",
		"square_km": "1.691,05",
		"lat": 33.463819,
		"lng": -92.168164
	},
	{
		"state_abr": "AR",
		"fips": 525,
		"county": "Cleveland",
		"square_km": "1.550,75",
		"lat": 33.893201,
		"lng": -92.188714
	},
	{
		"state_abr": "AR",
		"fips": 5119,
		"county": "Pulaski",
		"square_km": "2.091,84",
		"lat": 34.773988,
		"lng": -92.316515
	},
	{
		"state_abr": "AR",
		"fips": 545,
		"county": "Faulkner",
		"square_km": "1.719,94",
		"lat": 35.146356,
		"lng": -92.324654
	},
	{
		"state_abr": "AR",
		"fips": 55,
		"county": "Baxter",
		"square_km": "1.519,59",
		"lat": 36.28071,
		"lng": -92.330438
	},
	{
		"state_abr": "AR",
		"fips": 553,
		"county": "Grant",
		"square_km": "1.639,28",
		"lat": 34.288063,
		"lng": -92.423984
	},
	{
		"state_abr": "AR",
		"fips": 513,
		"county": "Calhoun",
		"square_km": "1.637,94",
		"lat": 33.56046,
		"lng": -92.513879
	},
	{
		"state_abr": "AR",
		"fips": 5141,
		"county": "Van Buren",
		"square_km": "1.875,89",
		"lat": 35.582959,
		"lng": -92.515977
	},
	{
		"state_abr": "AR",
		"fips": 5139,
		"county": "Union",
		"square_km": "2.732,95",
		"lat": 33.168219,
		"lng": -92.598145
	},
	{
		"state_abr": "AR",
		"fips": 539,
		"county": "Dallas",
		"square_km": "1.730,39",
		"lat": 33.967823,
		"lng": -92.653999
	},
	{
		"state_abr": "AR",
		"fips": 5125,
		"county": "Saline",
		"square_km": "1.891,96",
		"lat": 34.648525,
		"lng": -92.674463
	},
	{
		"state_abr": "AR",
		"fips": 589,
		"county": "Marion",
		"square_km": "1.658,42",
		"lat": 36.266656,
		"lng": -92.678588
	},
	{
		"state_abr": "AR",
		"fips": 529,
		"county": "Conway",
		"square_km": "1.467,66",
		"lat": 35.265702,
		"lng": -92.689248
	},
	{
		"state_abr": "AR",
		"fips": 5129,
		"county": "Searcy",
		"square_km": "1.731,43",
		"lat": 35.90966,
		"lng": -92.699351
	},
	{
		"state_abr": "AR",
		"fips": 5103,
		"county": "Ouachita",
		"square_km": "1.915,95",
		"lat": 33.591158,
		"lng": -92.878418
	},
	{
		"state_abr": "AR",
		"fips": 5105,
		"county": "Perry",
		"square_km": "1.451,78",
		"lat": 34.946363,
		"lng": -92.926877
	},
	{
		"state_abr": "AR",
		"fips": 559,
		"county": "Hot Spring",
		"square_km": "1.611,42",
		"lat": 34.315177,
		"lng": -92.944147
	},
	{
		"state_abr": "AR",
		"fips": 5115,
		"county": "Pope",
		"square_km": "2.151,70",
		"lat": 35.455297,
		"lng": -93.031535
	},
	{
		"state_abr": "AR",
		"fips": 59,
		"county": "Boone",
		"square_km": "1.558,74",
		"lat": 36.304308,
		"lng": -93.079204
	},
	{
		"state_abr": "AR",
		"fips": 551,
		"county": "Garland",
		"square_km": "1.902,66",
		"lat": 34.578861,
		"lng": -93.146915
	},
	{
		"state_abr": "AR",
		"fips": 519,
		"county": "Clark",
		"square_km": "2.286,52",
		"lat": 34.053312,
		"lng": -93.176205
	},
	{
		"state_abr": "AR",
		"fips": 5101,
		"county": "Newton",
		"square_km": "2.132,04",
		"lat": 35.910063,
		"lng": -93.215084
	},
	{
		"state_abr": "AR",
		"fips": 527,
		"county": "Columbia",
		"square_km": "1.985,88",
		"lat": 33.21507,
		"lng": -93.226901
	},
	{
		"state_abr": "AR",
		"fips": 599,
		"county": "Nevada",
		"square_km": "1.607,45",
		"lat": 33.666699,
		"lng": -93.305072
	},
	{
		"state_abr": "AR",
		"fips": 5149,
		"county": "Yell",
		"square_km": "2.457,53",
		"lat": 34.997713,
		"lng": -93.408303
	},
	{
		"state_abr": "AR",
		"fips": 571,
		"county": "Johnson",
		"square_km": "1.768,30",
		"lat": 35.573359,
		"lng": -93.466322
	},
	{
		"state_abr": "AR",
		"fips": 515,
		"county": "Carroll",
		"square_km": "1.654,48",
		"lat": 36.337774,
		"lng": -93.541663
	},
	{
		"state_abr": "AR",
		"fips": 573,
		"county": "Lafayette",
		"square_km": "1.411,75",
		"lat": 33.24066,
		"lng": -93.611643
	},
	{
		"state_abr": "AR",
		"fips": 5109,
		"county": "Pike",
		"square_km": "1.590,59",
		"lat": 34.158191,
		"lng": -93.658659
	},
	{
		"state_abr": "AR",
		"fips": 597,
		"county": "Montgomery",
		"square_km": "2.072,74",
		"lat": 34.545652,
		"lng": -93.664147
	},
	{
		"state_abr": "AR",
		"fips": 557,
		"county": "Hempstead",
		"square_km": "1.919,64",
		"lat": 33.728611,
		"lng": -93.665809
	},
	{
		"state_abr": "AR",
		"fips": 583,
		"county": "Logan",
		"square_km": "1.894,73",
		"lat": 35.21855,
		"lng": -93.720563
	},
	{
		"state_abr": "AR",
		"fips": 587,
		"county": "Madison",
		"square_km": "2.168,03",
		"lat": 36.012545,
		"lng": -93.724053
	},
	{
		"state_abr": "AR",
		"fips": 547,
		"county": "Franklin",
		"square_km": "1.604,87",
		"lat": 35.508573,
		"lng": -93.887672
	},
	{
		"state_abr": "AR",
		"fips": 591,
		"county": "Miller",
		"square_km": "1.651,50",
		"lat": 33.305505,
		"lng": -93.901509
	},
	{
		"state_abr": "AR",
		"fips": 561,
		"county": "Howard",
		"square_km": "1.541,86",
		"lat": 34.083179,
		"lng": -93.990988
	},
	{
		"state_abr": "AR",
		"fips": 5127,
		"county": "Scott",
		"square_km": "2.326,00",
		"lat": 34.858869,
		"lng": -94.063641
	},
	{
		"state_abr": "AR",
		"fips": 5143,
		"county": "Washington",
		"square_km": "2.466,73",
		"lat": 35.971209,
		"lng": -94.218417
	},
	{
		"state_abr": "AR",
		"fips": 581,
		"county": "Little River",
		"square_km": "1.462,74",
		"lat": 33.699497,
		"lng": -94.229774
	},
	{
		"state_abr": "AR",
		"fips": 5113,
		"county": "Polk",
		"square_km": "2.233,77",
		"lat": 34.490915,
		"lng": -94.230884
	},
	{
		"state_abr": "AR",
		"fips": 533,
		"county": "Crawford",
		"square_km": "1.564,98",
		"lat": 35.583041,
		"lng": -94.236224
	},
	{
		"state_abr": "AR",
		"fips": 5133,
		"county": "Sevier",
		"square_km": "1.505,50",
		"lat": 33.994608,
		"lng": -94.24329
	},
	{
		"state_abr": "AR",
		"fips": 57,
		"county": "Benton",
		"square_km": "2.289,31",
		"lat": 36.337825,
		"lng": -94.256187
	},
	{
		"state_abr": "AR",
		"fips": 5131,
		"county": "Sebastian",
		"square_km": "1.414,55",
		"lat": 35.196981,
		"lng": -94.274989
	},
	{
		"state_abr": "AZ",
		"fips": 411,
		"county": "Greenlee",
		"square_km": "4.787,42",
		"lat": 33.238872,
		"lng": -109.242323
	},
	{
		"state_abr": "AZ",
		"fips": 41,
		"county": "Apache",
		"square_km": "29.055,62",
		"lat": 35.385845,
		"lng": -109.493747
	},
	{
		"state_abr": "AZ",
		"fips": 43,
		"county": "Cochise",
		"square_km": "16.106,09",
		"lat": 31.881793,
		"lng": -109.75412
	},
	{
		"state_abr": "AZ",
		"fips": 49,
		"county": "Graham",
		"square_km": "12.020,31",
		"lat": 32.931828,
		"lng": -109.87831
	},
	{
		"state_abr": "AZ",
		"fips": 417,
		"county": "Navajo",
		"square_km": "25.795,55",
		"lat": 35.390934,
		"lng": -110.320908
	},
	{
		"state_abr": "AZ",
		"fips": 47,
		"county": "Gila",
		"square_km": "12.420,10",
		"lat": 33.789618,
		"lng": -110.81187
	},
	{
		"state_abr": "AZ",
		"fips": 423,
		"county": "Santa Cruz",
		"square_km": "3.206,69",
		"lat": 31.525904,
		"lng": -110.84519
	},
	{
		"state_abr": "AZ",
		"fips": 421,
		"county": "Pinal",
		"square_km": "13.919,20",
		"lat": 32.91891,
		"lng": -111.367257
	},
	{
		"state_abr": "AZ",
		"fips": 45,
		"county": "Coconino",
		"square_km": "48.332,65",
		"lat": 35.829692,
		"lng": -111.773728
	},
	{
		"state_abr": "AZ",
		"fips": 419,
		"county": "Pima",
		"square_km": "23.799,65",
		"lat": 32.128237,
		"lng": -111.783018
	},
	{
		"state_abr": "AZ",
		"fips": 413,
		"county": "Maricopa",
		"square_km": "23.891,06",
		"lat": 33.346541,
		"lng": -112.495534
	},
	{
		"state_abr": "AZ",
		"fips": 425,
		"county": "Yavapai",
		"square_km": "21.051,27",
		"lat": 34.630044,
		"lng": -112.573745
	},
	{
		"state_abr": "AZ",
		"fips": 415,
		"county": "Mohave",
		"square_km": "34.862,92",
		"lat": 35.717705,
		"lng": -113.749689
	},
	{
		"state_abr": "AZ",
		"fips": 427,
		"county": "Yuma",
		"square_km": "14.294,43",
		"lat": 32.773942,
		"lng": -113.910905
	},
	{
		"state_abr": "AZ",
		"fips": 412,
		"county": "La Paz",
		"square_km": "11.690,57",
		"lat": 33.727625,
		"lng": -114.038793
	},
	{
		"state_abr": "CA",
		"fips": 625,
		"county": "Imperial",
		"square_km": "11.607,60",
		"lat": 33.040816,
		"lng": -115.355395
	},
	{
		"state_abr": "CA",
		"fips": 665,
		"county": "Riverside",
		"square_km": "18.915,77",
		"lat": 33.729828,
		"lng": -116.002239
	},
	{
		"state_abr": "CA",
		"fips": 671,
		"county": "San Bernardino",
		"square_km": "52.071,26",
		"lat": 34.85722,
		"lng": -116.181197
	},
	{
		"state_abr": "CA",
		"fips": 673,
		"county": "San Diego",
		"square_km": "11.721,47",
		"lat": 33.023604,
		"lng": -116.776117
	},
	{
		"state_abr": "CA",
		"fips": 627,
		"county": "Inyo",
		"square_km": "26.487,56",
		"lat": 36.561977,
		"lng": -117.403927
	},
	{
		"state_abr": "CA",
		"fips": 659,
		"county": "Orange",
		"square_km": "2.455,48",
		"lat": 33.675687,
		"lng": -117.777207
	},
	{
		"state_abr": "CA",
		"fips": 637,
		"county": "Los Angeles",
		"square_km": "12.304,88",
		"lat": 34.196398,
		"lng": -118.261862
	},
	{
		"state_abr": "CA",
		"fips": 629,
		"county": "Kern",
		"square_km": "21.141,14",
		"lat": 35.346629,
		"lng": -118.729506
	},
	{
		"state_abr": "CA",
		"fips": 6107,
		"county": "Tulare",
		"square_km": "12.532,05",
		"lat": 36.230453,
		"lng": -118.780542
	},
	{
		"state_abr": "CA",
		"fips": 651,
		"county": "Mono",
		"square_km": "8.111,52",
		"lat": 37.915836,
		"lng": -118.875167
	},
	{
		"state_abr": "CA",
		"fips": 6111,
		"county": "Ventura",
		"square_km": "5.719,68",
		"lat": 34.358742,
		"lng": -119.133143
	},
	{
		"state_abr": "CA",
		"fips": 619,
		"county": "Fresno",
		"square_km": "15.568,94",
		"lat": 36.761006,
		"lng": -119.655019
	},
	{
		"state_abr": "CA",
		"fips": 639,
		"county": "Madera",
		"square_km": "5.576,94",
		"lat": 37.210039,
		"lng": -119.749852
	},
	{
		"state_abr": "CA",
		"fips": 63,
		"county": "Alpine",
		"square_km": "1.924,83",
		"lat": 38.61761,
		"lng": -119.798999
	},
	{
		"state_abr": "CA",
		"fips": 631,
		"county": "Kings",
		"square_km": "3.604,05",
		"lat": 36.072478,
		"lng": -119.81553
	},
	{
		"state_abr": "CA",
		"fips": 643,
		"county": "Mariposa",
		"square_km": "3.788,69",
		"lat": 37.570034,
		"lng": -119.91286
	},
	{
		"state_abr": "CA",
		"fips": 6109,
		"county": "Tuolumne",
		"square_km": "5.890,75",
		"lat": 38.021451,
		"lng": -119.964708
	},
	{
		"state_abr": "CA",
		"fips": 683,
		"county": "Santa Barbara",
		"square_km": "9.813,67",
		"lat": 34.537378,
		"lng": -120.038485
	},
	{
		"state_abr": "CA",
		"fips": 679,
		"county": "San Luis Obispo",
		"square_km": "9.364,22",
		"lat": 35.385227,
		"lng": -120.44754
	},
	{
		"state_abr": "CA",
		"fips": 691,
		"county": "Sierra",
		"square_km": "2.492,11",
		"lat": 39.576925,
		"lng": -120.521993
	},
	{
		"state_abr": "CA",
		"fips": 617,
		"county": "El Dorado",
		"square_km": "4.626,64",
		"lat": 38.785532,
		"lng": -120.534398
	},
	{
		"state_abr": "CA",
		"fips": 69,
		"county": "Calaveras",
		"square_km": "2.685,63",
		"lat": 38.187844,
		"lng": -120.555115
	},
	{
		"state_abr": "CA",
		"fips": 635,
		"county": "Lassen",
		"square_km": "12.225,05",
		"lat": 40.721089,
		"lng": -120.629931
	},
	{
		"state_abr": "CA",
		"fips": 65,
		"county": "Amador",
		"square_km": "1.569,42",
		"lat": 38.44355,
		"lng": -120.653856
	},
	{
		"state_abr": "CA",
		"fips": 649,
		"county": "Modoc",
		"square_km": "10.886,75",
		"lat": 41.592919,
		"lng": -120.71837
	},
	{
		"state_abr": "CA",
		"fips": 661,
		"county": "Placer",
		"square_km": "3.891,34",
		"lat": 39.062032,
		"lng": -120.722718
	},
	{
		"state_abr": "CA",
		"fips": 647,
		"county": "Merced",
		"square_km": "5.124,32",
		"lat": 37.194806,
		"lng": -120.722802
	},
	{
		"state_abr": "CA",
		"fips": 657,
		"county": "Nevada",
		"square_km": "2.522,13",
		"lat": 39.295191,
		"lng": -120.773446
	},
	{
		"state_abr": "CA",
		"fips": 663,
		"county": "Plumas",
		"square_km": "6.768,75",
		"lat": 39.99517,
		"lng": -120.829516
	},
	{
		"state_abr": "CA",
		"fips": 699,
		"county": "Stanislaus",
		"square_km": "3.923,02",
		"lat": 37.562384,
		"lng": -121.002656
	},
	{
		"state_abr": "CA",
		"fips": 669,
		"county": "San Benito",
		"square_km": "3.601,30",
		"lat": 36.610702,
		"lng": -121.085296
	},
	{
		"state_abr": "CA",
		"fips": 677,
		"county": "San Joaquin",
		"square_km": "3.694,62",
		"lat": 37.935034,
		"lng": -121.272237
	},
	{
		"state_abr": "CA",
		"fips": 653,
		"county": "Monterey",
		"square_km": "9.767,42",
		"lat": 36.240107,
		"lng": -121.315573
	},
	{
		"state_abr": "CA",
		"fips": 667,
		"county": "Sacramento",
		"square_km": "2.574,49",
		"lat": 38.450011,
		"lng": -121.340441
	},
	{
		"state_abr": "CA",
		"fips": 6115,
		"county": "Yuba",
		"square_km": "1.667,45",
		"lat": 39.270026,
		"lng": -121.34428
	},
	{
		"state_abr": "CA",
		"fips": 67,
		"county": "Butte",
		"square_km": "4.343,75",
		"lat": 39.665959,
		"lng": -121.601919
	},
	{
		"state_abr": "CA",
		"fips": 685,
		"county": "Santa Clara",
		"square_km": "3.377,52",
		"lat": 37.220777,
		"lng": -121.690622
	},
	{
		"state_abr": "CA",
		"fips": 6101,
		"county": "Sutter",
		"square_km": "1.575,98",
		"lat": 39.035257,
		"lng": -121.702758
	},
	{
		"state_abr": "CA",
		"fips": 6113,
		"county": "Yolo",
		"square_km": "2.651,00",
		"lat": 38.679268,
		"lng": -121.903178
	},
	{
		"state_abr": "CA",
		"fips": 61,
		"county": "Alameda",
		"square_km": "2.127,23",
		"lat": 37.648081,
		"lng": -121.913304
	},
	{
		"state_abr": "CA",
		"fips": 695,
		"county": "Solano",
		"square_km": "2.347,03",
		"lat": 38.267226,
		"lng": -121.939594
	},
	{
		"state_abr": "CA",
		"fips": 613,
		"county": "Contra Costa",
		"square_km": "2.081,75",
		"lat": 37.919479,
		"lng": -121.951543
	},
	{
		"state_abr": "CA",
		"fips": 687,
		"county": "Santa Cruz",
		"square_km": "1.572,56",
		"lat": 37.012488,
		"lng": -122.007205
	},
	{
		"state_abr": "CA",
		"fips": 689,
		"county": "Shasta",
		"square_km": "9.964,78",
		"lat": 40.760522,
		"lng": -122.04355
	},
	{
		"state_abr": "CA",
		"fips": 6103,
		"county": "Tehama",
		"square_km": "7.671,99",
		"lat": 40.126156,
		"lng": -122.232276
	},
	{
		"state_abr": "CA",
		"fips": 611,
		"county": "Colusa",
		"square_km": "2.994,96",
		"lat": 39.177739,
		"lng": -122.237563
	},
	{
		"state_abr": "CA",
		"fips": 655,
		"county": "Napa",
		"square_km": "2.042,42",
		"lat": 38.507351,
		"lng": -122.325995
	},
	{
		"state_abr": "CA",
		"fips": 681,
		"county": "San Mateo",
		"square_km": "1.919,08",
		"lat": 37.414664,
		"lng": -122.371542
	},
	{
		"state_abr": "CA",
		"fips": 621,
		"county": "Glenn",
		"square_km": "3.436,86",
		"lat": 39.602546,
		"lng": -122.4017
	},
	{
		"state_abr": "CA",
		"fips": 693,
		"county": "Siskiyou",
		"square_km": "16.439,54",
		"lat": 41.587986,
		"lng": -122.533287
	},
	{
		"state_abr": "CA",
		"fips": 641,
		"county": "Marin",
		"square_km": "2.145,01",
		"lat": 38.051817,
		"lng": -122.745974
	},
	{
		"state_abr": "CA",
		"fips": 633,
		"county": "Lake",
		"square_km": "3.443,19",
		"lat": 39.094802,
		"lng": -122.746757
	},
	{
		"state_abr": "CA",
		"fips": 697,
		"county": "Sonoma",
		"square_km": "4.578,96",
		"lat": 38.532574,
		"lng": -122.945194
	},
	{
		"state_abr": "CA",
		"fips": 675,
		"county": "San Francisco",
		"square_km": "600,59",
		"lat": 37.727239,
		"lng": -123.032229
	},
	{
		"state_abr": "CA",
		"fips": 6105,
		"county": "Trinity",
		"square_km": "8.307,64",
		"lat": 40.647724,
		"lng": -123.114404
	},
	{
		"state_abr": "CA",
		"fips": 645,
		"county": "Mendocino",
		"square_km": "10.044,34",
		"lat": 39.432388,
		"lng": -123.442881
	},
	{
		"state_abr": "CA",
		"fips": 623,
		"county": "Humboldt",
		"square_km": "10.495,30",
		"lat": 40.706673,
		"lng": -123.925818
	},
	{
		"state_abr": "CA",
		"fips": 615,
		"county": "Del Norte",
		"square_km": "3.185,02",
		"lat": 41.749903,
		"lng": -123.980998
	},
	{
		"state_abr": "CO",
		"fips": 895,
		"county": "Phillips",
		"square_km": "1.782,03",
		"lat": 40.594712,
		"lng": -102.345105
	},
	{
		"state_abr": "CO",
		"fips": 8115,
		"county": "Sedgwick",
		"square_km": "1.422,95",
		"lat": 40.871568,
		"lng": -102.355358
	},
	{
		"state_abr": "CO",
		"fips": 899,
		"county": "Prowers",
		"square_km": "4.258,78",
		"lat": 37.958181,
		"lng": -102.392161
	},
	{
		"state_abr": "CO",
		"fips": 8125,
		"county": "Yuma",
		"square_km": "6.134,92",
		"lat": 40.000631,
		"lng": -102.422649
	},
	{
		"state_abr": "CO",
		"fips": 89,
		"county": "Baca",
		"square_km": "6.623,48",
		"lat": 37.303144,
		"lng": -102.535457
	},
	{
		"state_abr": "CO",
		"fips": 863,
		"county": "Kit Carson",
		"square_km": "5.598,75",
		"lat": 39.30534,
		"lng": -102.603023
	},
	{
		"state_abr": "CO",
		"fips": 817,
		"county": "Cheyenne",
		"square_km": "4.613,88",
		"lat": 38.835387,
		"lng": -102.604585
	},
	{
		"state_abr": "CO",
		"fips": 861,
		"county": "Kiowa",
		"square_km": "4.625,53",
		"lat": 38.388466,
		"lng": -102.75621
	},
	{
		"state_abr": "CO",
		"fips": 811,
		"county": "Bent",
		"square_km": "3.991,39",
		"lat": 37.931891,
		"lng": -103.077584
	},
	{
		"state_abr": "CO",
		"fips": 875,
		"county": "Logan",
		"square_km": "4.778,18",
		"lat": 40.728091,
		"lng": -103.090464
	},
	{
		"state_abr": "CO",
		"fips": 8121,
		"county": "Washington",
		"square_km": "6.536,88",
		"lat": 39.965413,
		"lng": -103.209605
	},
	{
		"state_abr": "CO",
		"fips": 873,
		"county": "Lincoln",
		"square_km": "6.698,80",
		"lat": 38.99374,
		"lng": -103.507555
	},
	{
		"state_abr": "CO",
		"fips": 889,
		"county": "Otero",
		"square_km": "3.288,52",
		"lat": 37.88417,
		"lng": -103.72126
	},
	{
		"state_abr": "CO",
		"fips": 825,
		"county": "Crowley",
		"square_km": "2.072,84",
		"lat": 38.321956,
		"lng": -103.787562
	},
	{
		"state_abr": "CO",
		"fips": 887,
		"county": "Morgan",
		"square_km": "3.350,78",
		"lat": 40.262354,
		"lng": -103.807092
	},
	{
		"state_abr": "CO",
		"fips": 871,
		"county": "Las Animas",
		"square_km": "12.368,09",
		"lat": 37.318831,
		"lng": -104.04411
	},
	{
		"state_abr": "CO",
		"fips": 839,
		"county": "Elbert",
		"square_km": "4.794,11",
		"lat": 39.310817,
		"lng": -104.117928
	},
	{
		"state_abr": "CO",
		"fips": 85,
		"county": "Arapahoe",
		"square_km": "2.086,07",
		"lat": 39.644632,
		"lng": -104.331733
	},
	{
		"state_abr": "CO",
		"fips": 81,
		"county": "Adams",
		"square_km": "3.066,28",
		"lat": 39.874325,
		"lng": -104.331872
	},
	{
		"state_abr": "CO",
		"fips": 8123,
		"county": "Weld",
		"square_km": "10.403,45",
		"lat": 40.555794,
		"lng": -104.383649
	},
	{
		"state_abr": "CO",
		"fips": 8101,
		"county": "Pueblo",
		"square_km": "6.210,26",
		"lat": 38.170658,
		"lng": -104.489893
	},
	{
		"state_abr": "CO",
		"fips": 841,
		"county": "El Paso",
		"square_km": "5.515,50",
		"lat": 38.827383,
		"lng": -104.527472
	},
	{
		"state_abr": "CO",
		"fips": 831,
		"county": "Denver",
		"square_km": "400,494",
		"lat": 39.761849,
		"lng": -104.880625
	},
	{
		"state_abr": "CO",
		"fips": 835,
		"county": "Douglas",
		"square_km": "2.183,02",
		"lat": 39.326435,
		"lng": -104.926199
	},
	{
		"state_abr": "CO",
		"fips": 855,
		"county": "Huerfano",
		"square_km": "4.126,47",
		"lat": 37.687815,
		"lng": -104.959928
	},
	{
		"state_abr": "CO",
		"fips": 814,
		"county": "Broomfield",
		"square_km": "87,024",
		"lat": 39.953383,
		"lng": -105.052125
	},
	{
		"state_abr": "CO",
		"fips": 8119,
		"county": "Teller",
		"square_km": "1.447,71",
		"lat": 38.871994,
		"lng": -105.182552
	},
	{
		"state_abr": "CO",
		"fips": 859,
		"county": "Jefferson",
		"square_km": "2.004,74",
		"lat": 39.58646,
		"lng": -105.245601
	},
	{
		"state_abr": "CO",
		"fips": 827,
		"county": "Custer",
		"square_km": "1.916,40",
		"lat": 38.101994,
		"lng": -105.373515
	},
	{
		"state_abr": "CO",
		"fips": 813,
		"county": "Boulder",
		"square_km": "1.917,55",
		"lat": 40.094826,
		"lng": -105.398382
	},
	{
		"state_abr": "CO",
		"fips": 843,
		"county": "Fremont",
		"square_km": "3.972,86",
		"lat": 38.455658,
		"lng": -105.421438
	},
	{
		"state_abr": "CO",
		"fips": 823,
		"county": "Costilla",
		"square_km": "3.186,62",
		"lat": 37.277547,
		"lng": -105.42894
	},
	{
		"state_abr": "CO",
		"fips": 869,
		"county": "Larimer",
		"square_km": "6.821,91",
		"lat": 40.663091,
		"lng": -105.482131
	},
	{
		"state_abr": "CO",
		"fips": 847,
		"county": "Gilpin",
		"square_km": "389,171",
		"lat": 39.861082,
		"lng": -105.528947
	},
	{
		"state_abr": "CO",
		"fips": 819,
		"county": "Clear Creek",
		"square_km": "1.026,91",
		"lat": 39.689403,
		"lng": -105.670791
	},
	{
		"state_abr": "CO",
		"fips": 893,
		"county": "Park",
		"square_km": "5.725,57",
		"lat": 39.118914,
		"lng": -105.717648
	},
	{
		"state_abr": "CO",
		"fips": 83,
		"county": "Alamosa",
		"square_km": "1.873,45",
		"lat": 37.568442,
		"lng": -105.788041
	},
	{
		"state_abr": "CO",
		"fips": 849,
		"county": "Grand",
		"square_km": "4.842,22",
		"lat": 40.123289,
		"lng": -106.095876
	},
	{
		"state_abr": "CO",
		"fips": 8117,
		"county": "Summit",
		"square_km": "1.603,92",
		"lat": 39.621023,
		"lng": -106.137555
	},
	{
		"state_abr": "CO",
		"fips": 821,
		"county": "Conejos",
		"square_km": "3.343,56",
		"lat": 37.213407,
		"lng": -106.176447
	},
	{
		"state_abr": "CO",
		"fips": 8109,
		"county": "Saguache",
		"square_km": "8.210,90",
		"lat": 38.033952,
		"lng": -106.246675
	},
	{
		"state_abr": "CO",
		"fips": 815,
		"county": "Chaffee",
		"square_km": "2.628,72",
		"lat": 38.738246,
		"lng": -106.316972
	},
	{
		"state_abr": "CO",
		"fips": 857,
		"county": "Jackson",
		"square_km": "4.198,27",
		"lat": 40.663432,
		"lng": -106.329248
	},
	{
		"state_abr": "CO",
		"fips": 865,
		"county": "Lake",
		"square_km": "994,319",
		"lat": 39.204316,
		"lng": -106.349696
	},
	{
		"state_abr": "CO",
		"fips": 8105,
		"county": "Rio Grande",
		"square_km": "2.362,94",
		"lat": 37.485763,
		"lng": -106.453214
	},
	{
		"state_abr": "CO",
		"fips": 837,
		"county": "Eagle",
		"square_km": "4.381,72",
		"lat": 39.630638,
		"lng": -106.692944
	},
	{
		"state_abr": "CO",
		"fips": 897,
		"county": "Pitkin",
		"square_km": "2.520,56",
		"lat": 39.217533,
		"lng": -106.915943
	},
	{
		"state_abr": "CO",
		"fips": 879,
		"county": "Mineral",
		"square_km": "2.273,19",
		"lat": 37.651478,
		"lng": -106.9323
	},
	{
		"state_abr": "CO",
		"fips": 8107,
		"county": "Routt",
		"square_km": "6.133,45",
		"lat": 40.48316,
		"lng": -106.985289
	},
	{
		"state_abr": "CO",
		"fips": 87,
		"county": "Archuleta",
		"square_km": "3.510,77",
		"lat": 37.202395,
		"lng": -107.050863
	},
	{
		"state_abr": "CO",
		"fips": 851,
		"county": "Gunnison",
		"square_km": "8.442,40",
		"lat": 38.669679,
		"lng": -107.078108
	},
	{
		"state_abr": "CO",
		"fips": 853,
		"county": "Hinsdale",
		"square_km": "2.908,99",
		"lat": 37.811625,
		"lng": -107.383405
	},
	{
		"state_abr": "CO",
		"fips": 8111,
		"county": "San Juan",
		"square_km": "1.005,62",
		"lat": 37.781075,
		"lng": -107.670257
	},
	{
		"state_abr": "CO",
		"fips": 891,
		"county": "Ouray",
		"square_km": "1.404,32",
		"lat": 38.1506,
		"lng": -107.767133
	},
	{
		"state_abr": "CO",
		"fips": 867,
		"county": "La Plata",
		"square_km": "4.402,22",
		"lat": 37.287367,
		"lng": -107.839718
	},
	{
		"state_abr": "CO",
		"fips": 829,
		"county": "Delta",
		"square_km": "2.974,86",
		"lat": 38.861756,
		"lng": -107.864757
	},
	{
		"state_abr": "CO",
		"fips": 845,
		"county": "Garfield",
		"square_km": "7.655,58",
		"lat": 39.599352,
		"lng": -107.90978
	},
	{
		"state_abr": "CO",
		"fips": 8103,
		"county": "Rio Blanco",
		"square_km": "8.347,05",
		"lat": 39.972606,
		"lng": -108.200685
	},
	{
		"state_abr": "CO",
		"fips": 881,
		"county": "Moffat",
		"square_km": "12.304,81",
		"lat": 40.573984,
		"lng": -108.204521
	},
	{
		"state_abr": "CO",
		"fips": 885,
		"county": "Montrose",
		"square_km": "5.808,30",
		"lat": 38.413427,
		"lng": -108.263042
	},
	{
		"state_abr": "CO",
		"fips": 8113,
		"county": "San Miguel",
		"square_km": "3.337,52",
		"lat": 38.009374,
		"lng": -108.427326
	},
	{
		"state_abr": "CO",
		"fips": 877,
		"county": "Mesa",
		"square_km": "8.653,47",
		"lat": 39.019492,
		"lng": -108.461837
	},
	{
		"state_abr": "CO",
		"fips": 833,
		"county": "Dolores",
		"square_km": "2.766,37",
		"lat": 37.747602,
		"lng": -108.530383
	},
	{
		"state_abr": "CO",
		"fips": 883,
		"county": "Montezuma",
		"square_km": "5.283,97",
		"lat": 37.338025,
		"lng": -108.595786
	},
	{
		"state_abr": "CT",
		"fips": 915,
		"county": "Windham[6]",
		"square_km": "1.350,52",
		"lat": 41.824999,
		"lng": -71.990702
	},
	{
		"state_abr": "CT",
		"fips": 911,
		"county": "New London[6]",
		"square_km": "1.998,69",
		"lat": 41.47863,
		"lng": -72.103452
	},
	{
		"state_abr": "CT",
		"fips": 913,
		"county": "Tolland[6]",
		"square_km": "1.080,15",
		"lat": 41.858076,
		"lng": -72.340977
	},
	{
		"state_abr": "CT",
		"fips": 97,
		"county": "Middlesex[6]",
		"square_km": "1.137,17",
		"lat": 41.434525,
		"lng": -72.524227
	},
	{
		"state_abr": "CT",
		"fips": 93,
		"county": "Hartford[6]",
		"square_km": "1.944,11",
		"lat": 41.806053,
		"lng": -72.732916
	},
	{
		"state_abr": "CT",
		"fips": 99,
		"county": "New Haven[6]",
		"square_km": "2.232,72",
		"lat": 41.349717,
		"lng": -72.900204
	},
	{
		"state_abr": "CT",
		"fips": 95,
		"county": "Litchfield[6]",
		"square_km": "2.446,41",
		"lat": 41.791897,
		"lng": -73.235428
	},
	{
		"state_abr": "CT",
		"fips": 91,
		"county": "Fairfield[6]",
		"square_km": "2.167,62",
		"lat": 41.228103,
		"lng": -73.366757
	},
	{
		"state_abr": "DE",
		"fips": 105,
		"county": "Sussex",
		"square_km": "3.098,64",
		"lat": 38.677511,
		"lng": -75.335495
	},
	{
		"state_abr": "DE",
		"fips": 101,
		"county": "Kent",
		"square_km": "2.067,67",
		"lat": 39.097088,
		"lng": -75.502982
	},
	{
		"state_abr": "DE",
		"fips": 103,
		"county": "New Castle",
		"square_km": "1.279,46",
		"lat": 39.575915,
		"lng": -75.644132
	},
	{
		"state_abr": "FL",
		"fips": 1285,
		"county": "Martin",
		"square_km": "1.949,82",
		"lat": 27.079954,
		"lng": -80.398211
	},
	{
		"state_abr": "FL",
		"fips": 12111,
		"county": "St. Lucie",
		"square_km": "1.782,19",
		"lat": 27.380775,
		"lng": -80.443364
	},
	{
		"state_abr": "FL",
		"fips": 1299,
		"county": "Palm Beach",
		"square_km": "6.171,97",
		"lat": 26.645763,
		"lng": -80.448673
	},
	{
		"state_abr": "FL",
		"fips": 1211,
		"county": "Broward",
		"square_km": "3.426,20",
		"lat": 26.19352,
		"lng": -80.476658
	},
	{
		"state_abr": "FL",
		"fips": 1286,
		"county": "Miami-Dade",
		"square_km": "6.296,73",
		"lat": 25.610494,
		"lng": -80.499045
	},
	{
		"state_abr": "FL",
		"fips": 1261,
		"county": "Indian River",
		"square_km": "1.598,04",
		"lat": 27.700638,
		"lng": -80.574803
	},
	{
		"state_abr": "FL",
		"fips": 129,
		"county": "Brevard",
		"square_km": "4.032,60",
		"lat": 28.298276,
		"lng": -80.700384
	},
	{
		"state_abr": "FL",
		"fips": 1293,
		"county": "Okeechobee",
		"square_km": "2.310,03",
		"lat": 27.385592,
		"lng": -80.887388
	},
	{
		"state_abr": "FL",
		"fips": 12117,
		"county": "Seminole",
		"square_km": "894,308",
		"lat": 28.690079,
		"lng": -81.13198
	},
	{
		"state_abr": "FL",
		"fips": 1297,
		"county": "Osceola",
		"square_km": "3.900,28",
		"lat": 28.059027,
		"lng": -81.139312
	},
	{
		"state_abr": "FL",
		"fips": 1251,
		"county": "Hendry",
		"square_km": "3.082,08",
		"lat": 26.53934,
		"lng": -81.151584
	},
	{
		"state_abr": "FL",
		"fips": 12127,
		"county": "Volusia",
		"square_km": "3.709,99",
		"lat": 29.057617,
		"lng": -81.161813
	},
	{
		"state_abr": "FL",
		"fips": 1243,
		"county": "Glades",
		"square_km": "2.555,93",
		"lat": 26.95481,
		"lng": -81.19082
	},
	{
		"state_abr": "FL",
		"fips": 1287,
		"county": "Monroe",
		"square_km": "9.680,14",
		"lat": 25.601043,
		"lng": -81.206777
	},
	{
		"state_abr": "FL",
		"fips": 1235,
		"county": "Flagler",
		"square_km": "1.478,43",
		"lat": 29.474894,
		"lng": -81.286362
	},
	{
		"state_abr": "FL",
		"fips": 1295,
		"county": "Orange",
		"square_km": "2.598,43",
		"lat": 28.514435,
		"lng": -81.323295
	},
	{
		"state_abr": "FL",
		"fips": 1255,
		"county": "Highlands",
		"square_km": "2.864,62",
		"lat": 27.342627,
		"lng": -81.340921
	},
	{
		"state_abr": "FL",
		"fips": 12109,
		"county": "St. Johns",
		"square_km": "2.127,74",
		"lat": 29.890593,
		"lng": -81.383914
	},
	{
		"state_abr": "FL",
		"fips": 1221,
		"county": "Collier",
		"square_km": "5.969,96",
		"lat": 26.118713,
		"lng": -81.400884
	},
	{
		"state_abr": "FL",
		"fips": 1231,
		"county": "Duval",
		"square_km": "2.378,78",
		"lat": 30.335245,
		"lng": -81.648113
	},
	{
		"state_abr": "FL",
		"fips": 12105,
		"county": "Polk",
		"square_km": "5.207,30",
		"lat": 27.953115,
		"lng": -81.692783
	},
	{
		"state_abr": "FL",
		"fips": 1269,
		"county": "Lake",
		"square_km": "2.996,52",
		"lat": 28.764113,
		"lng": -81.712282
	},
	{
		"state_abr": "FL",
		"fips": 12107,
		"county": "Putnam",
		"square_km": "2.141,72",
		"lat": 29.606006,
		"lng": -81.740894
	},
	{
		"state_abr": "FL",
		"fips": 1289,
		"county": "Nassau",
		"square_km": "1.880,13",
		"lat": 30.605926,
		"lng": -81.764929
	},
	{
		"state_abr": "FL",
		"fips": 1227,
		"county": "DeSoto",
		"square_km": "1.656,25",
		"lat": 27.190581,
		"lng": -81.806253
	},
	{
		"state_abr": "FL",
		"fips": 1249,
		"county": "Hardee",
		"square_km": "1.653,29",
		"lat": 27.492846,
		"lng": -81.82158
	},
	{
		"state_abr": "FL",
		"fips": 1219,
		"county": "Clay",
		"square_km": "1.666,78",
		"lat": 29.987116,
		"lng": -81.858147
	},
	{
		"state_abr": "FL",
		"fips": 1271,
		"county": "Lee",
		"square_km": "3.140,26",
		"lat": 26.552134,
		"lng": -81.89225
	},
	{
		"state_abr": "FL",
		"fips": 1215,
		"county": "Charlotte",
		"square_km": "2.222,99",
		"lat": 26.868826,
		"lng": -81.940858
	},
	{
		"state_abr": "FL",
		"fips": 1283,
		"county": "Marion",
		"square_km": "4.306,14",
		"lat": 29.202805,
		"lng": -82.0431
	},
	{
		"state_abr": "FL",
		"fips": 12119,
		"county": "Sumter",
		"square_km": "1.501,74",
		"lat": 28.714294,
		"lng": -82.074715
	},
	{
		"state_abr": "FL",
		"fips": 127,
		"county": "Bradford",
		"square_km": "778,262",
		"lat": 29.946934,
		"lng": -82.166796
	},
	{
		"state_abr": "FL",
		"fips": 123,
		"county": "Baker",
		"square_km": "1.525,43",
		"lat": 30.324442,
		"lng": -82.302284
	},
	{
		"state_abr": "FL",
		"fips": 1257,
		"county": "Hillsborough",
		"square_km": "3.278,31",
		"lat": 27.90659,
		"lng": -82.349568
	},
	{
		"state_abr": "FL",
		"fips": 121,
		"county": "Alachua",
		"square_km": "2.509,20",
		"lat": 29.67574,
		"lng": -82.357221
	},
	{
		"state_abr": "FL",
		"fips": 1281,
		"county": "Manatee",
		"square_km": "2.312,03",
		"lat": 27.481386,
		"lng": -82.365784
	},
	{
		"state_abr": "FL",
		"fips": 12115,
		"county": "Sarasota",
		"square_km": "1.878,63",
		"lat": 27.184386,
		"lng": -82.365835
	},
	{
		"state_abr": "FL",
		"fips": 12125,
		"county": "Union",
		"square_km": "646,856",
		"lat": 30.05428,
		"lng": -82.366918
	},
	{
		"state_abr": "FL",
		"fips": 12101,
		"county": "Pasco",
		"square_km": "2.249,29",
		"lat": 28.302024,
		"lng": -82.455707
	},
	{
		"state_abr": "FL",
		"fips": 1253,
		"county": "Hernando",
		"square_km": "1.525,56",
		"lat": 28.567911,
		"lng": -82.464835
	},
	{
		"state_abr": "FL",
		"fips": 1217,
		"county": "Citrus",
		"square_km": "2.002,82",
		"lat": 28.843628,
		"lng": -82.524796
	},
	{
		"state_abr": "FL",
		"fips": 1223,
		"county": "Columbia",
		"square_km": "2.075,43",
		"lat": 30.221305,
		"lng": -82.623127
	},
	{
		"state_abr": "FL",
		"fips": 12103,
		"county": "Pinellas",
		"square_km": "1.575,04",
		"lat": 27.903122,
		"lng": -82.739518
	},
	{
		"state_abr": "FL",
		"fips": 1275,
		"county": "Levy",
		"square_km": "3.659,12",
		"lat": 29.284409,
		"lng": -82.783483
	},
	{
		"state_abr": "FL",
		"fips": 1241,
		"county": "Gilchrist",
		"square_km": "920,064",
		"lat": 29.723456,
		"lng": -82.795801
	},
	{
		"state_abr": "FL",
		"fips": 1247,
		"county": "Hamilton",
		"square_km": "1.344,35",
		"lat": 30.491102,
		"lng": -82.951049
	},
	{
		"state_abr": "FL",
		"fips": 12121,
		"county": "Suwannee",
		"square_km": "1.792,94",
		"lat": 30.189244,
		"lng": -82.992754
	},
	{
		"state_abr": "FL",
		"fips": 1267,
		"county": "Lafayette",
		"square_km": "1.419,08",
		"lat": 29.990066,
		"lng": -83.17851
	},
	{
		"state_abr": "FL",
		"fips": 1229,
		"county": "Dixie",
		"square_km": "2.236,84",
		"lat": 29.580899,
		"lng": -83.195666
	},
	{
		"state_abr": "FL",
		"fips": 1279,
		"county": "Madison",
		"square_km": "1.853,61",
		"lat": 30.447228,
		"lng": -83.470437
	},
	{
		"state_abr": "FL",
		"fips": 12123,
		"county": "Taylor",
		"square_km": "3.191,39",
		"lat": 30.016943,
		"lng": -83.616417
	},
	{
		"state_abr": "FL",
		"fips": 1265,
		"county": "Jefferson",
		"square_km": "1.648,62",
		"lat": 30.424558,
		"lng": -83.890859
	},
	{
		"state_abr": "FL",
		"fips": 1273,
		"county": "Leon",
		"square_km": "1.817,63",
		"lat": 30.45931,
		"lng": -84.2778
	},
	{
		"state_abr": "FL",
		"fips": 12129,
		"county": "Wakulla",
		"square_km": "1.905,52",
		"lat": 30.140378,
		"lng": -84.375136
	},
	{
		"state_abr": "FL",
		"fips": 1239,
		"county": "Gadsden",
		"square_km": "1.368,88",
		"lat": 30.57917,
		"lng": -84.612783
	},
	{
		"state_abr": "FL",
		"fips": 1237,
		"county": "Franklin",
		"square_km": "2.658,61",
		"lat": 29.810176,
		"lng": -84.799174
	},
	{
		"state_abr": "FL",
		"fips": 1277,
		"county": "Liberty",
		"square_km": "2.183,68",
		"lat": 30.259849,
		"lng": -84.868581
	},
	{
		"state_abr": "FL",
		"fips": 1213,
		"county": "Calhoun",
		"square_km": "1.487,46",
		"lat": 30.388801,
		"lng": -85.197916
	},
	{
		"state_abr": "FL",
		"fips": 1263,
		"county": "Jackson",
		"square_km": "2.472,31",
		"lat": 30.787812,
		"lng": -85.210374
	},
	{
		"state_abr": "FL",
		"fips": 1245,
		"county": "Gulf",
		"square_km": "1.956,89",
		"lat": 29.907257,
		"lng": -85.256537
	},
	{
		"state_abr": "FL",
		"fips": 125,
		"county": "Bay",
		"square_km": "2.675,85",
		"lat": 30.237563,
		"lng": -85.631348
	},
	{
		"state_abr": "FL",
		"fips": 12133,
		"county": "Washington",
		"square_km": "1.595,31",
		"lat": 30.602217,
		"lng": -85.662797
	},
	{
		"state_abr": "FL",
		"fips": 1259,
		"county": "Holmes",
		"square_km": "1.266,63",
		"lat": 30.866222,
		"lng": -85.812959
	},
	{
		"state_abr": "FL",
		"fips": 12131,
		"county": "Walton",
		"square_km": "3.210,54",
		"lat": 30.631211,
		"lng": -86.176614
	},
	{
		"state_abr": "FL",
		"fips": 1291,
		"county": "Okaloosa",
		"square_km": "2.802,57",
		"lat": 30.665858,
		"lng": -86.594194
	},
	{
		"state_abr": "FL",
		"fips": 12113,
		"county": "Santa Rosa",
		"square_km": "3.040,07",
		"lat": 30.703633,
		"lng": -87.014255
	},
	{
		"state_abr": "FL",
		"fips": 1233,
		"county": "Escambia",
		"square_km": "2.265,47",
		"lat": 30.611664,
		"lng": -87.33904
	},
	{
		"state_abr": "GA",
		"fips": 1351,
		"county": "Chatham",
		"square_km": "1.637,55",
		"lat": 31.974756,
		"lng": -81.091768
	},
	{
		"state_abr": "GA",
		"fips": 13103,
		"county": "Effingham",
		"square_km": "1.250,78",
		"lat": 32.361711,
		"lng": -81.343337
	},
	{
		"state_abr": "GA",
		"fips": 13191,
		"county": "McIntosh",
		"square_km": "1.486,38",
		"lat": 31.482978,
		"lng": -81.370199
	},
	{
		"state_abr": "GA",
		"fips": 1329,
		"county": "Bryan",
		"square_km": "1.177,04",
		"lat": 32.017969,
		"lng": -81.438543
	},
	{
		"state_abr": "GA",
		"fips": 13179,
		"county": "Liberty",
		"square_km": "1.560,54",
		"lat": 31.807245,
		"lng": -81.457969
	},
	{
		"state_abr": "GA",
		"fips": 13127,
		"county": "Glynn",
		"square_km": "1.515,79",
		"lat": 31.212747,
		"lng": -81.496517
	},
	{
		"state_abr": "GA",
		"fips": 13251,
		"county": "Screven",
		"square_km": "1.698,69",
		"lat": 32.744751,
		"lng": -81.617585
	},
	{
		"state_abr": "GA",
		"fips": 1339,
		"county": "Camden",
		"square_km": "2.025,02",
		"lat": 30.916358,
		"lng": -81.636516
	},
	{
		"state_abr": "GA",
		"fips": 13183,
		"county": "Long",
		"square_km": "1.045,87",
		"lat": 31.749563,
		"lng": -81.74287
	},
	{
		"state_abr": "GA",
		"fips": 1331,
		"county": "Bulloch",
		"square_km": "1.783,53",
		"lat": 32.393408,
		"lng": -81.74381
	},
	{
		"state_abr": "GA",
		"fips": 13109,
		"county": "Evans",
		"square_km": "483,99",
		"lat": 32.151902,
		"lng": -81.887618
	},
	{
		"state_abr": "GA",
		"fips": 13305,
		"county": "Wayne",
		"square_km": "1.680,37",
		"lat": 31.547845,
		"lng": -81.912376
	},
	{
		"state_abr": "GA",
		"fips": 13165,
		"county": "Jenkins",
		"square_km": "912,901",
		"lat": 32.794563,
		"lng": -81.971524
	},
	{
		"state_abr": "GA",
		"fips": 1325,
		"county": "Brantley",
		"square_km": "1.158,25",
		"lat": 31.197334,
		"lng": -81.982978
	},
	{
		"state_abr": "GA",
		"fips": 1333,
		"county": "Burke",
		"square_km": "2.162,60",
		"lat": 33.063737,
		"lng": -82.00389
	},
	{
		"state_abr": "GA",
		"fips": 13267,
		"county": "Tattnall",
		"square_km": "1.264,82",
		"lat": 32.043768,
		"lng": -82.059208
	},
	{
		"state_abr": "GA",
		"fips": 1343,
		"county": "Candler",
		"square_km": "644,539",
		"lat": 32.403986,
		"lng": -82.071446
	},
	{
		"state_abr": "GA",
		"fips": 13245,
		"county": "Richmond",
		"square_km": "851,047",
		"lat": 33.361487,
		"lng": -82.074998
	},
	{
		"state_abr": "GA",
		"fips": 1349,
		"county": "Charlton",
		"square_km": "2.026,34",
		"lat": 30.779904,
		"lng": -82.139644
	},
	{
		"state_abr": "GA",
		"fips": 13229,
		"county": "Pierce",
		"square_km": "888,961",
		"lat": 31.353988,
		"lng": -82.210427
	},
	{
		"state_abr": "GA",
		"fips": 1373,
		"county": "Columbia",
		"square_km": "796,692",
		"lat": 33.550556,
		"lng": -82.251342
	},
	{
		"state_abr": "GA",
		"fips": 131,
		"county": "Appling",
		"square_km": "1.326,75",
		"lat": 31.739712,
		"lng": -82.290103
	},
	{
		"state_abr": "GA",
		"fips": 13107,
		"county": "Emanuel",
		"square_km": "1.787,56",
		"lat": 32.5911,
		"lng": -82.299763
	},
	{
		"state_abr": "GA",
		"fips": 13279,
		"county": "Toombs",
		"square_km": "960,867",
		"lat": 32.126698,
		"lng": -82.332071
	},
	{
		"state_abr": "GA",
		"fips": 135,
		"county": "Bacon",
		"square_km": "740,277",
		"lat": 31.563327,
		"lng": -82.387859
	},
	{
		"state_abr": "GA",
		"fips": 13163,
		"county": "Jefferson",
		"square_km": "1.371,83",
		"lat": 33.051874,
		"lng": -82.41905
	},
	{
		"state_abr": "GA",
		"fips": 13299,
		"county": "Ware",
		"square_km": "2.351,68",
		"lat": 31.050881,
		"lng": -82.421507
	},
	{
		"state_abr": "GA",
		"fips": 13181,
		"county": "Lincoln",
		"square_km": "666,398",
		"lat": 33.792151,
		"lng": -82.448299
	},
	{
		"state_abr": "GA",
		"fips": 13189,
		"county": "McDuffie",
		"square_km": "689,941",
		"lat": 33.482464,
		"lng": -82.473188
	},
	{
		"state_abr": "GA",
		"fips": 13209,
		"county": "Montgomery",
		"square_km": "633,752",
		"lat": 32.172108,
		"lng": -82.533349
	},
	{
		"state_abr": "GA",
		"fips": 13283,
		"county": "Treutlen",
		"square_km": "524,342",
		"lat": 32.409586,
		"lng": -82.570882
	},
	{
		"state_abr": "GA",
		"fips": 13125,
		"county": "Glascock",
		"square_km": "374,132",
		"lat": 33.227491,
		"lng": -82.606913
	},
	{
		"state_abr": "GA",
		"fips": 13161,
		"county": "Jeff Davis",
		"square_km": "868,677",
		"lat": 31.811615,
		"lng": -82.636825
	},
	{
		"state_abr": "GA",
		"fips": 13167,
		"county": "Johnson",
		"square_km": "794,072",
		"lat": 32.689831,
		"lng": -82.661354
	},
	{
		"state_abr": "GA",
		"fips": 13301,
		"county": "Warren",
		"square_km": "742,518",
		"lat": 33.419169,
		"lng": -82.688012
	},
	{
		"state_abr": "GA",
		"fips": 1365,
		"county": "Clinch",
		"square_km": "2.134,13",
		"lat": 30.917653,
		"lng": -82.702614
	},
	{
		"state_abr": "GA",
		"fips": 13309,
		"county": "Wheeler",
		"square_km": "777,691",
		"lat": 32.109276,
		"lng": -82.738701
	},
	{
		"state_abr": "GA",
		"fips": 13317,
		"county": "Wilkes",
		"square_km": "1.227,90",
		"lat": 33.77904,
		"lng": -82.747922
	},
	{
		"state_abr": "GA",
		"fips": 13303,
		"county": "Washington",
		"square_km": "1.772,47",
		"lat": 32.971848,
		"lng": -82.798112
	},
	{
		"state_abr": "GA",
		"fips": 13101,
		"county": "Echols",
		"square_km": "1.089,66",
		"lat": 30.7085,
		"lng": -82.836132
	},
	{
		"state_abr": "GA",
		"fips": 13105,
		"county": "Elbert",
		"square_km": "969,216",
		"lat": 34.115017,
		"lng": -82.842057
	},
	{
		"state_abr": "GA",
		"fips": 1369,
		"county": "Coffee",
		"square_km": "1.560,86",
		"lat": 31.549245,
		"lng": -82.844938
	},
	{
		"state_abr": "GA",
		"fips": 13265,
		"county": "Taliaferro",
		"square_km": "505,947",
		"lat": 33.559314,
		"lng": -82.875208
	},
	{
		"state_abr": "GA",
		"fips": 133,
		"county": "Atkinson",
		"square_km": "892,338",
		"lat": 31.300562,
		"lng": -82.883614
	},
	{
		"state_abr": "GA",
		"fips": 13175,
		"county": "Laurens",
		"square_km": "2.119,83",
		"lat": 32.39322,
		"lng": -82.926317
	},
	{
		"state_abr": "GA",
		"fips": 13271,
		"county": "Telfair",
		"square_km": "1.149,98",
		"lat": 31.913639,
		"lng": -82.931062
	},
	{
		"state_abr": "GA",
		"fips": 13147,
		"county": "Hart",
		"square_km": "665,492",
		"lat": 34.348733,
		"lng": -82.96329
	},
	{
		"state_abr": "GA",
		"fips": 13141,
		"county": "Hancock",
		"square_km": "1.239,78",
		"lat": 33.26922,
		"lng": -83.000465
	},
	{
		"state_abr": "GA",
		"fips": 13173,
		"county": "Lanier",
		"square_km": "517,45",
		"lat": 31.038197,
		"lng": -83.063164
	},
	{
		"state_abr": "GA",
		"fips": 13221,
		"county": "Oglethorpe",
		"square_km": "1.144,87",
		"lat": 33.866806,
		"lng": -83.074081
	},
	{
		"state_abr": "GA",
		"fips": 1317,
		"county": "Ben Hill",
		"square_km": "657,616",
		"lat": 31.740776,
		"lng": -83.14719
	},
	{
		"state_abr": "GA",
		"fips": 1391,
		"county": "Dodge",
		"square_km": "1.303,06",
		"lat": 32.160656,
		"lng": -83.156818
	},
	{
		"state_abr": "GA",
		"fips": 13133,
		"county": "Greene",
		"square_km": "1.052,08",
		"lat": 33.576836,
		"lng": -83.167103
	},
	{
		"state_abr": "GA",
		"fips": 13319,
		"county": "Wilkinson",
		"square_km": "1.170,55",
		"lat": 32.804321,
		"lng": -83.175587
	},
	{
		"state_abr": "GA",
		"fips": 13195,
		"county": "Madison",
		"square_km": "739,669",
		"lat": 34.128486,
		"lng": -83.203637
	},
	{
		"state_abr": "GA",
		"fips": 13119,
		"county": "Franklin",
		"square_km": "690,105",
		"lat": 34.375155,
		"lng": -83.227291
	},
	{
		"state_abr": "GA",
		"fips": 1319,
		"county": "Berrien",
		"square_km": "1.185,91",
		"lat": 31.274308,
		"lng": -83.231906
	},
	{
		"state_abr": "GA",
		"fips": 139,
		"county": "Baldwin",
		"square_km": "692,591",
		"lat": 33.059532,
		"lng": -83.255362
	},
	{
		"state_abr": "GA",
		"fips": 13185,
		"county": "Lowndes",
		"square_km": "1.322,38",
		"lat": 30.83368,
		"lng": -83.268967
	},
	{
		"state_abr": "GA",
		"fips": 13155,
		"county": "Irwin",
		"square_km": "939,551",
		"lat": 31.604306,
		"lng": -83.277037
	},
	{
		"state_abr": "GA",
		"fips": 13257,
		"county": "Stephens",
		"square_km": "477,07",
		"lat": 34.552914,
		"lng": -83.290216
	},
	{
		"state_abr": "GA",
		"fips": 1323,
		"county": "Bleckley",
		"square_km": "567,548",
		"lat": 32.435403,
		"lng": -83.331717
	},
	{
		"state_abr": "GA",
		"fips": 1359,
		"county": "Clarke",
		"square_km": "313,48",
		"lat": 33.952234,
		"lng": -83.36713
	},
	{
		"state_abr": "GA",
		"fips": 13237,
		"county": "Putnam",
		"square_km": "934,174",
		"lat": 33.321061,
		"lng": -83.37179
	},
	{
		"state_abr": "GA",
		"fips": 13241,
		"county": "Rabun",
		"square_km": "976,122",
		"lat": 34.883026,
		"lng": -83.404735
	},
	{
		"state_abr": "GA",
		"fips": 13289,
		"county": "Twiggs",
		"square_km": "939,218",
		"lat": 32.665847,
		"lng": -83.425879
	},
	{
		"state_abr": "GA",
		"fips": 1375,
		"county": "Cook",
		"square_km": "603,993",
		"lat": 31.152935,
		"lng": -83.429552
	},
	{
		"state_abr": "GA",
		"fips": 13219,
		"county": "Oconee",
		"square_km": "482,701",
		"lat": 33.834125,
		"lng": -83.437728
	},
	{
		"state_abr": "GA",
		"fips": 13315,
		"county": "Wilcox",
		"square_km": "989,694",
		"lat": 31.962717,
		"lng": -83.438262
	},
	{
		"state_abr": "GA",
		"fips": 13235,
		"county": "Pulaski",
		"square_km": "650,622",
		"lat": 32.238794,
		"lng": -83.481855
	},
	{
		"state_abr": "GA",
		"fips": 13211,
		"county": "Morgan",
		"square_km": "918,463",
		"lat": 33.593732,
		"lng": -83.492324
	},
	{
		"state_abr": "GA",
		"fips": 1311,
		"county": "Banks",
		"square_km": "605,763",
		"lat": 34.351922,
		"lng": -83.498441
	},
	{
		"state_abr": "GA",
		"fips": 13277,
		"county": "Tift",
		"square_km": "696,161",
		"lat": 31.457003,
		"lng": -83.525931
	},
	{
		"state_abr": "GA",
		"fips": 13137,
		"county": "Habersham",
		"square_km": "722,672",
		"lat": 34.635108,
		"lng": -83.526406
	},
	{
		"state_abr": "GA",
		"fips": 13169,
		"county": "Jones",
		"square_km": "1.024,12",
		"lat": 33.020226,
		"lng": -83.562339
	},
	{
		"state_abr": "GA",
		"fips": 13157,
		"county": "Jackson",
		"square_km": "888,623",
		"lat": 34.134157,
		"lng": -83.565133
	},
	{
		"state_abr": "GA",
		"fips": 1327,
		"county": "Brooks",
		"square_km": "1.289,30",
		"lat": 30.833696,
		"lng": -83.588971
	},
	{
		"state_abr": "GA",
		"fips": 13287,
		"county": "Turner",
		"square_km": "751,046",
		"lat": 31.718232,
		"lng": -83.628567
	},
	{
		"state_abr": "GA",
		"fips": 13153,
		"county": "Houston",
		"square_km": "983,991",
		"lat": 32.458381,
		"lng": -83.662856
	},
	{
		"state_abr": "GA",
		"fips": 13159,
		"county": "Jasper",
		"square_km": "967,269",
		"lat": 33.314905,
		"lng": -83.687892
	},
	{
		"state_abr": "GA",
		"fips": 1321,
		"county": "Bibb",
		"square_km": "661,394",
		"lat": 32.808844,
		"lng": -83.694193
	},
	{
		"state_abr": "GA",
		"fips": 1313,
		"county": "Barrow",
		"square_km": "422,016",
		"lat": 33.992009,
		"lng": -83.712303
	},
	{
		"state_abr": "GA",
		"fips": 13281,
		"county": "Towns",
		"square_km": "445,433",
		"lat": 34.90265,
		"lng": -83.732158
	},
	{
		"state_abr": "GA",
		"fips": 13297,
		"county": "Walton",
		"square_km": "854,696",
		"lat": 33.782649,
		"lng": -83.734215
	},
	{
		"state_abr": "GA",
		"fips": 13311,
		"county": "White",
		"square_km": "627,315",
		"lat": 34.643677,
		"lng": -83.743713
	},
	{
		"state_abr": "GA",
		"fips": 1381,
		"county": "Crisp",
		"square_km": "727,66",
		"lat": 31.914753,
		"lng": -83.753338
	},
	{
		"state_abr": "GA",
		"fips": 1371,
		"county": "Colquitt",
		"square_km": "1.441,69",
		"lat": 31.189758,
		"lng": -83.769741
	},
	{
		"state_abr": "GA",
		"fips": 1393,
		"county": "Dooly",
		"square_km": "1.028,96",
		"lat": 32.151995,
		"lng": -83.807167
	},
	{
		"state_abr": "GA",
		"fips": 13139,
		"county": "Hall",
		"square_km": "1.111,87",
		"lat": 34.317588,
		"lng": -83.818497
	},
	{
		"state_abr": "GA",
		"fips": 13225,
		"county": "Peach",
		"square_km": "391,867",
		"lat": 32.571324,
		"lng": -83.831978
	},
	{
		"state_abr": "GA",
		"fips": 13321,
		"county": "Worth",
		"square_km": "1.488,61",
		"lat": 31.551773,
		"lng": -83.84996
	},
	{
		"state_abr": "GA",
		"fips": 13217,
		"county": "Newton",
		"square_km": "723,119",
		"lat": 33.544046,
		"lng": -83.855189
	},
	{
		"state_abr": "GA",
		"fips": 13275,
		"county": "Thomas",
		"square_km": "1.430,24",
		"lat": 30.864616,
		"lng": -83.919783
	},
	{
		"state_abr": "GA",
		"fips": 13207,
		"county": "Monroe",
		"square_km": "1.030,33",
		"lat": 33.017435,
		"lng": -83.922938
	},
	{
		"state_abr": "GA",
		"fips": 1335,
		"county": "Butts",
		"square_km": "487,024",
		"lat": 33.290355,
		"lng": -83.958221
	},
	{
		"state_abr": "GA",
		"fips": 1379,
		"county": "Crawford",
		"square_km": "845,511",
		"lat": 32.709446,
		"lng": -83.979182
	},
	{
		"state_abr": "GA",
		"fips": 13291,
		"county": "Union",
		"square_km": "852,118",
		"lat": 34.83377,
		"lng": -83.989573
	},
	{
		"state_abr": "GA",
		"fips": 13187,
		"county": "Lumpkin",
		"square_km": "736,066",
		"lat": 34.568149,
		"lng": -83.998828
	},
	{
		"state_abr": "GA",
		"fips": 13135,
		"county": "Gwinnett",
		"square_km": "1.131,24",
		"lat": 33.959101,
		"lng": -84.022938
	},
	{
		"state_abr": "GA",
		"fips": 13247,
		"county": "Rockdale",
		"square_km": "342,132",
		"lat": 33.652081,
		"lng": -84.02637
	},
	{
		"state_abr": "GA",
		"fips": 13193,
		"county": "Macon",
		"square_km": "1.051,51",
		"lat": 32.366216,
		"lng": -84.052162
	},
	{
		"state_abr": "GA",
		"fips": 13117,
		"county": "Forsyth",
		"square_km": "640,157",
		"lat": 34.225143,
		"lng": -84.127336
	},
	{
		"state_abr": "GA",
		"fips": 13177,
		"county": "Lee",
		"square_km": "936,884",
		"lat": 31.818419,
		"lng": -84.146681
	},
	{
		"state_abr": "GA",
		"fips": 13171,
		"county": "Lamar",
		"square_km": "481,309",
		"lat": 33.07446,
		"lng": -84.146721
	},
	{
		"state_abr": "GA",
		"fips": 13151,
		"county": "Henry",
		"square_km": "845,752",
		"lat": 33.452881,
		"lng": -84.15444
	},
	{
		"state_abr": "GA",
		"fips": 1385,
		"county": "Dawson",
		"square_km": "555,315",
		"lat": 34.442842,
		"lng": -84.173284
	},
	{
		"state_abr": "GA",
		"fips": 13205,
		"county": "Mitchell",
		"square_km": "1.330,80",
		"lat": 31.22894,
		"lng": -84.192407
	},
	{
		"state_abr": "GA",
		"fips": 13261,
		"county": "Sumter",
		"square_km": "1.275,97",
		"lat": 32.042203,
		"lng": -84.204283
	},
	{
		"state_abr": "GA",
		"fips": 1395,
		"county": "Dougherty",
		"square_km": "866,694",
		"lat": 31.535068,
		"lng": -84.214444
	},
	{
		"state_abr": "GA",
		"fips": 1389,
		"county": "DeKalb",
		"square_km": "702,254",
		"lat": 33.770661,
		"lng": -84.226343
	},
	{
		"state_abr": "GA",
		"fips": 13131,
		"county": "Grady",
		"square_km": "1.192,08",
		"lat": 30.875863,
		"lng": -84.244772
	},
	{
		"state_abr": "GA",
		"fips": 13269,
		"county": "Taylor",
		"square_km": "983,416",
		"lat": 32.554667,
		"lng": -84.251426
	},
	{
		"state_abr": "GA",
		"fips": 13255,
		"county": "Spalding",
		"square_km": "516,937",
		"lat": 33.262389,
		"lng": -84.286067
	},
	{
		"state_abr": "GA",
		"fips": 13293,
		"county": "Upson",
		"square_km": "848,36",
		"lat": 32.881837,
		"lng": -84.292281
	},
	{
		"state_abr": "GA",
		"fips": 13111,
		"county": "Fannin",
		"square_km": "1.015,17",
		"lat": 34.863837,
		"lng": -84.319287
	},
	{
		"state_abr": "GA",
		"fips": 13249,
		"county": "Schley",
		"square_km": "434,66",
		"lat": 32.263441,
		"lng": -84.322724
	},
	{
		"state_abr": "GA",
		"fips": 13231,
		"county": "Pike",
		"square_km": "568,256",
		"lat": 33.090769,
		"lng": -84.386627
	},
	{
		"state_abr": "GA",
		"fips": 1363,
		"county": "Clayton",
		"square_km": "373,817",
		"lat": 33.552242,
		"lng": -84.412977
	},
	{
		"state_abr": "GA",
		"fips": 13273,
		"county": "Terrell",
		"square_km": "874,647",
		"lat": 31.777191,
		"lng": -84.439446
	},
	{
		"state_abr": "GA",
		"fips": 13123,
		"county": "Gilmer",
		"square_km": "1.116,92",
		"lat": 34.690541,
		"lng": -84.453984
	},
	{
		"state_abr": "GA",
		"fips": 137,
		"county": "Baker",
		"square_km": "904,264",
		"lat": 31.319622,
		"lng": -84.454857
	},
	{
		"state_abr": "GA",
		"fips": 13121,
		"county": "Fulton",
		"square_km": "1.383,90",
		"lat": 33.790034,
		"lng": -84.468182
	},
	{
		"state_abr": "GA",
		"fips": 1357,
		"county": "Cherokee",
		"square_km": "1.125,10",
		"lat": 34.244317,
		"lng": -84.475057
	},
	{
		"state_abr": "GA",
		"fips": 13227,
		"county": "Pickens",
		"square_km": "602,722",
		"lat": 34.456621,
		"lng": -84.490256
	},
	{
		"state_abr": "GA",
		"fips": 13113,
		"county": "Fayette",
		"square_km": "516,241",
		"lat": 33.412717,
		"lng": -84.493941
	},
	{
		"state_abr": "GA",
		"fips": 13197,
		"county": "Marion",
		"square_km": "951,77",
		"lat": 32.359538,
		"lng": -84.529561
	},
	{
		"state_abr": "GA",
		"fips": 13263,
		"county": "Talbot",
		"square_km": "1.022,43",
		"lat": 32.704603,
		"lng": -84.530029
	},
	{
		"state_abr": "GA",
		"fips": 13307,
		"county": "Webster",
		"square_km": "544,58",
		"lat": 32.046554,
		"lng": -84.553218
	},
	{
		"state_abr": "GA",
		"fips": 1367,
		"county": "Cobb",
		"square_km": "892,297",
		"lat": 33.93994,
		"lng": -84.574166
	},
	{
		"state_abr": "GA",
		"fips": 1387,
		"county": "Decatur",
		"square_km": "1.614,00",
		"lat": 30.877961,
		"lng": -84.577744
	},
	{
		"state_abr": "GA",
		"fips": 1337,
		"county": "Calhoun",
		"square_km": "734,463",
		"lat": 31.521279,
		"lng": -84.62629
	},
	{
		"state_abr": "GA",
		"fips": 13199,
		"county": "Meriwether",
		"square_km": "1.309,00",
		"lat": 33.03022,
		"lng": -84.663279
	},
	{
		"state_abr": "GA",
		"fips": 13201,
		"county": "Miller",
		"square_km": "734,683",
		"lat": 31.162908,
		"lng": -84.730386
	},
	{
		"state_abr": "GA",
		"fips": 13213,
		"county": "Murray",
		"square_km": "897,852",
		"lat": 34.797097,
		"lng": -84.73799
	},
	{
		"state_abr": "GA",
		"fips": 13243,
		"county": "Randolph",
		"square_km": "1.115,96",
		"lat": 31.762651,
		"lng": -84.752311
	},
	{
		"state_abr": "GA",
		"fips": 1377,
		"county": "Coweta",
		"square_km": "1.154,66",
		"lat": 33.352897,
		"lng": -84.762138
	},
	{
		"state_abr": "GA",
		"fips": 1397,
		"county": "Douglas",
		"square_km": "520,655",
		"lat": 33.699317,
		"lng": -84.765944
	},
	{
		"state_abr": "GA",
		"fips": 1353,
		"county": "Chattahoochee",
		"square_km": "650,516",
		"lat": 32.347445,
		"lng": -84.788021
	},
	{
		"state_abr": "GA",
		"fips": 13259,
		"county": "Stewart",
		"square_km": "1.200,75",
		"lat": 32.073225,
		"lng": -84.834912
	},
	{
		"state_abr": "GA",
		"fips": 1315,
		"county": "Bartow",
		"square_km": "1.217,59",
		"lat": 34.240918,
		"lng": -84.838188
	},
	{
		"state_abr": "GA",
		"fips": 13223,
		"county": "Paulding",
		"square_km": "814,141",
		"lat": 33.920903,
		"lng": -84.866979
	},
	{
		"state_abr": "GA",
		"fips": 13253,
		"county": "Seminole",
		"square_km": "664,477",
		"lat": 30.933894,
		"lng": -84.867592
	},
	{
		"state_abr": "GA",
		"fips": 13129,
		"county": "Gordon",
		"square_km": "927,327",
		"lat": 34.509667,
		"lng": -84.873862
	},
	{
		"state_abr": "GA",
		"fips": 13215,
		"county": "Muscogee",
		"square_km": "572,404",
		"lat": 32.510197,
		"lng": -84.874946
	},
	{
		"state_abr": "GA",
		"fips": 1399,
		"county": "Early",
		"square_km": "1.337,33",
		"lat": 31.324191,
		"lng": -84.906723
	},
	{
		"state_abr": "GA",
		"fips": 13145,
		"county": "Harris",
		"square_km": "1.224,95",
		"lat": 32.731549,
		"lng": -84.912432
	},
	{
		"state_abr": "GA",
		"fips": 13313,
		"county": "Whitfield",
		"square_km": "753,827",
		"lat": 34.801726,
		"lng": -84.968541
	},
	{
		"state_abr": "GA",
		"fips": 1361,
		"county": "Clay",
		"square_km": "562,635",
		"lat": 31.619831,
		"lng": -84.992583
	},
	{
		"state_abr": "GA",
		"fips": 13239,
		"county": "Quitman",
		"square_km": "415,861",
		"lat": 31.861487,
		"lng": -85.009317
	},
	{
		"state_abr": "GA",
		"fips": 13285,
		"county": "Troup",
		"square_km": "1.155,04",
		"lat": 33.034482,
		"lng": -85.02836
	},
	{
		"state_abr": "GA",
		"fips": 1345,
		"county": "Carroll",
		"square_km": "1.304,93",
		"lat": 33.582237,
		"lng": -85.080527
	},
	{
		"state_abr": "GA",
		"fips": 1347,
		"county": "Catoosa",
		"square_km": "420,771",
		"lat": 34.899393,
		"lng": -85.137353
	},
	{
		"state_abr": "GA",
		"fips": 13149,
		"county": "Heard",
		"square_km": "779,831",
		"lat": 33.290968,
		"lng": -85.139594
	},
	{
		"state_abr": "GA",
		"fips": 13233,
		"county": "Polk",
		"square_km": "808,441",
		"lat": 33.995961,
		"lng": -85.186826
	},
	{
		"state_abr": "GA",
		"fips": 13115,
		"county": "Floyd",
		"square_km": "1.342,82",
		"lat": 34.263677,
		"lng": -85.21373
	},
	{
		"state_abr": "GA",
		"fips": 13143,
		"county": "Haralson",
		"square_km": "733,42",
		"lat": 33.795165,
		"lng": -85.220062
	},
	{
		"state_abr": "GA",
		"fips": 13295,
		"county": "Walker",
		"square_km": "1.157,79",
		"lat": 34.735827,
		"lng": -85.305385
	},
	{
		"state_abr": "GA",
		"fips": 1355,
		"county": "Chattooga",
		"square_km": "812,113",
		"lat": 34.474179,
		"lng": -85.345289
	},
	{
		"state_abr": "GA",
		"fips": 1383,
		"county": "Dade",
		"square_km": "451,073",
		"lat": 34.852424,
		"lng": -85.506201
	},
	{
		"state_abr": "HI",
		"fips": 151,
		"county": "Hawaii",
		"square_km": "13.173,02",
		"lat": 19.597764,
		"lng": -155.502443
	},
	{
		"state_abr": "HI",
		"fips": 159,
		"county": "Maui",
		"square_km": "6.211,64",
		"lat": 20.855931,
		"lng": -156.60155
	},
	{
		"state_abr": "HI",
		"fips": 155,
		"county": "Kalawao[8]",
		"square_km": "136,827",
		"lat": 21.218764,
		"lng": -156.97401
	},
	{
		"state_abr": "HI",
		"fips": 153,
		"county": "Honolulu",
		"square_km": "5.511,68",
		"lat": 21.461364,
		"lng": -158.201976
	},
	{
		"state_abr": "HI",
		"fips": 157,
		"county": "Kauai",
		"square_km": "3.279,86",
		"lat": 22.012038,
		"lng": -159.705965
	},
	{
		"state_abr": "IA",
		"fips": 1945,
		"county": "Clinton",
		"square_km": "1.839,35",
		"lat": 41.898073,
		"lng": -90.534243
	},
	{
		"state_abr": "IA",
		"fips": 1997,
		"county": "Jackson",
		"square_km": "1.682,47",
		"lat": 42.164281,
		"lng": -90.574597
	},
	{
		"state_abr": "IA",
		"fips": 19163,
		"county": "Scott",
		"square_km": "1.212,66",
		"lat": 41.641679,
		"lng": -90.62229
	},
	{
		"state_abr": "IA",
		"fips": 1961,
		"county": "Dubuque",
		"square_km": "1.597,07",
		"lat": 42.463481,
		"lng": -90.878771
	},
	{
		"state_abr": "IA",
		"fips": 19105,
		"county": "Jones",
		"square_km": "1.494,43",
		"lat": 42.125118,
		"lng": -91.116914
	},
	{
		"state_abr": "IA",
		"fips": 19139,
		"county": "Muscatine",
		"square_km": "1.163,24",
		"lat": 41.483776,
		"lng": -91.118699
	},
	{
		"state_abr": "IA",
		"fips": 1931,
		"county": "Cedar",
		"square_km": "1.507,12",
		"lat": 41.772355,
		"lng": -91.13219
	},
	{
		"state_abr": "IA",
		"fips": 1957,
		"county": "Des Moines",
		"square_km": "1.113,05",
		"lat": 40.915339,
		"lng": -91.186925
	},
	{
		"state_abr": "IA",
		"fips": 19115,
		"county": "Louisa",
		"square_km": "1.081,37",
		"lat": 41.218211,
		"lng": -91.256994
	},
	{
		"state_abr": "IA",
		"fips": 1943,
		"county": "Clayton",
		"square_km": "2.052,99",
		"lat": 42.840998,
		"lng": -91.323511
	},
	{
		"state_abr": "IA",
		"fips": 1955,
		"county": "Delaware",
		"square_km": "1.499,46",
		"lat": 42.473003,
		"lng": -91.359443
	},
	{
		"state_abr": "IA",
		"fips": 195,
		"county": "Allamakee",
		"square_km": "1.706,21",
		"lat": 43.274964,
		"lng": -91.382751
	},
	{
		"state_abr": "IA",
		"fips": 19111,
		"county": "Lee",
		"square_km": "1.395,66",
		"lat": 40.647588,
		"lng": -91.477157
	},
	{
		"state_abr": "IA",
		"fips": 1987,
		"county": "Henry",
		"square_km": "1.130,69",
		"lat": 40.985864,
		"lng": -91.54427
	},
	{
		"state_abr": "IA",
		"fips": 19103,
		"county": "Johnson",
		"square_km": "1.613,95",
		"lat": 41.668737,
		"lng": -91.588812
	},
	{
		"state_abr": "IA",
		"fips": 19113,
		"county": "Linn",
		"square_km": "1.876,46",
		"lat": 42.077951,
		"lng": -91.597674
	},
	{
		"state_abr": "IA",
		"fips": 19183,
		"county": "Washington",
		"square_km": "1.478,68",
		"lat": 41.329401,
		"lng": -91.725052
	},
	{
		"state_abr": "IA",
		"fips": 1919,
		"county": "Buchanan",
		"square_km": "1.484,36",
		"lat": 42.470328,
		"lng": -91.838666
	},
	{
		"state_abr": "IA",
		"fips": 1965,
		"county": "Fayette",
		"square_km": "1.894,13",
		"lat": 42.86445,
		"lng": -91.839373
	},
	{
		"state_abr": "IA",
		"fips": 19191,
		"county": "Winneshiek",
		"square_km": "1.787,45",
		"lat": 43.292989,
		"lng": -91.850788
	},
	{
		"state_abr": "IA",
		"fips": 19177,
		"county": "Van Buren",
		"square_km": "1.270,44",
		"lat": 40.754117,
		"lng": -91.952943
	},
	{
		"state_abr": "IA",
		"fips": 19101,
		"county": "Jefferson",
		"square_km": "1.131,50",
		"lat": 41.00688,
		"lng": -91.967137
	},
	{
		"state_abr": "IA",
		"fips": 1911,
		"county": "Benton",
		"square_km": "1.860,88",
		"lat": 42.092547,
		"lng": -92.05763
	},
	{
		"state_abr": "IA",
		"fips": 1995,
		"county": "Iowa",
		"square_km": "1.521,60",
		"lat": 41.683918,
		"lng": -92.059123
	},
	{
		"state_abr": "IA",
		"fips": 19107,
		"county": "Keokuk",
		"square_km": "1.502,00",
		"lat": 41.331182,
		"lng": -92.167721
	},
	{
		"state_abr": "IA",
		"fips": 1913,
		"county": "Black Hawk",
		"square_km": "1.483,23",
		"lat": 42.472888,
		"lng": -92.306059
	},
	{
		"state_abr": "IA",
		"fips": 1937,
		"county": "Chickasaw",
		"square_km": "1.309,65",
		"lat": 43.059741,
		"lng": -92.31721
	},
	{
		"state_abr": "IA",
		"fips": 1989,
		"county": "Howard",
		"square_km": "1.226,63",
		"lat": 43.365313,
		"lng": -92.321908
	},
	{
		"state_abr": "IA",
		"fips": 1917,
		"county": "Bremer",
		"square_km": "1.138,05",
		"lat": 42.78089,
		"lng": -92.327586
	},
	{
		"state_abr": "IA",
		"fips": 19179,
		"county": "Wapello",
		"square_km": "1.129,29",
		"lat": 41.031263,
		"lng": -92.409482
	},
	{
		"state_abr": "IA",
		"fips": 1951,
		"county": "Davis",
		"square_km": "1.307,57",
		"lat": 40.748089,
		"lng": -92.410345
	},
	{
		"state_abr": "IA",
		"fips": 19157,
		"county": "Poweshiek",
		"square_km": "1.517,91",
		"lat": 41.684526,
		"lng": -92.522882
	},
	{
		"state_abr": "IA",
		"fips": 19171,
		"county": "Tama",
		"square_km": "1.870,18",
		"lat": 42.074848,
		"lng": -92.529412
	},
	{
		"state_abr": "IA",
		"fips": 19123,
		"county": "Mahaska",
		"square_km": "1.485,09",
		"lat": 41.330797,
		"lng": -92.636366
	},
	{
		"state_abr": "IA",
		"fips": 1923,
		"county": "Butler",
		"square_km": "1.506,74",
		"lat": 42.734708,
		"lng": -92.780066
	},
	{
		"state_abr": "IA",
		"fips": 19131,
		"county": "Mitchell",
		"square_km": "1.216,17",
		"lat": 43.348564,
		"lng": -92.784466
	},
	{
		"state_abr": "IA",
		"fips": 1967,
		"county": "Floyd",
		"square_km": "1.298,57",
		"lat": 43.052741,
		"lng": -92.787367
	},
	{
		"state_abr": "IA",
		"fips": 1975,
		"county": "Grundy",
		"square_km": "1.299,90",
		"lat": 42.403323,
		"lng": -92.790261
	},
	{
		"state_abr": "IA",
		"fips": 19135,
		"county": "Monroe",
		"square_km": "1.124,84",
		"lat": 41.028847,
		"lng": -92.869642
	},
	{
		"state_abr": "IA",
		"fips": 197,
		"county": "Appanoose",
		"square_km": "1.337,07",
		"lat": 40.744683,
		"lng": -92.870345
	},
	{
		"state_abr": "IA",
		"fips": 19127,
		"county": "Marshall",
		"square_km": "1.484,57",
		"lat": 42.041691,
		"lng": -92.981452
	},
	{
		"state_abr": "IA",
		"fips": 1999,
		"county": "Jasper",
		"square_km": "1.898,35",
		"lat": 41.685686,
		"lng": -93.052971
	},
	{
		"state_abr": "IA",
		"fips": 19125,
		"county": "Marion",
		"square_km": "1.477,61",
		"lat": 41.331455,
		"lng": -93.093849
	},
	{
		"state_abr": "IA",
		"fips": 1983,
		"county": "Hardin",
		"square_km": "1.476,27",
		"lat": 42.389955,
		"lng": -93.241081
	},
	{
		"state_abr": "IA",
		"fips": 19195,
		"county": "Worth",
		"square_km": "1.041,02",
		"lat": 43.373491,
		"lng": -93.248533
	},
	{
		"state_abr": "IA",
		"fips": 1933,
		"county": "Cerro Gordo",
		"square_km": "1.489,55",
		"lat": 43.075171,
		"lng": -93.251266
	},
	{
		"state_abr": "IA",
		"fips": 1969,
		"county": "Franklin",
		"square_km": "1.508,73",
		"lat": 42.736549,
		"lng": -93.271425
	},
	{
		"state_abr": "IA",
		"fips": 19117,
		"county": "Lucas",
		"square_km": "1.125,08",
		"lat": 41.033344,
		"lng": -93.331467
	},
	{
		"state_abr": "IA",
		"fips": 19185,
		"county": "Wayne",
		"square_km": "1.365,32",
		"lat": 40.739983,
		"lng": -93.332613
	},
	{
		"state_abr": "IA",
		"fips": 19169,
		"county": "Story",
		"square_km": "1.485,75",
		"lat": 42.037538,
		"lng": -93.466093
	},
	{
		"state_abr": "IA",
		"fips": 19181,
		"county": "Warren",
		"square_km": "1.484,97",
		"lat": 41.336769,
		"lng": -93.564366
	},
	{
		"state_abr": "IA",
		"fips": 19153,
		"county": "Polk",
		"square_km": "1.532,07",
		"lat": 41.684281,
		"lng": -93.56972
	},
	{
		"state_abr": "IA",
		"fips": 1979,
		"county": "Hamilton",
		"square_km": "1.495,74",
		"lat": 42.390768,
		"lng": -93.709198
	},
	{
		"state_abr": "IA",
		"fips": 19197,
		"county": "Wright",
		"square_km": "1.507,99",
		"lat": 42.733007,
		"lng": -93.734735
	},
	{
		"state_abr": "IA",
		"fips": 19189,
		"county": "Winnebago",
		"square_km": "1.040,44",
		"lat": 43.378124,
		"lng": -93.743488
	},
	{
		"state_abr": "IA",
		"fips": 1981,
		"county": "Hancock",
		"square_km": "1.484,16",
		"lat": 43.075411,
		"lng": -93.743697
	},
	{
		"state_abr": "IA",
		"fips": 1939,
		"county": "Clarke",
		"square_km": "1.118,24",
		"lat": 41.029191,
		"lng": -93.784096
	},
	{
		"state_abr": "IA",
		"fips": 1953,
		"county": "Decatur",
		"square_km": "1.381,71",
		"lat": 40.736379,
		"lng": -93.78458
	},
	{
		"state_abr": "IA",
		"fips": 1915,
		"county": "Boone",
		"square_km": "1.485,72",
		"lat": 42.038601,
		"lng": -93.939138
	},
	{
		"state_abr": "IA",
		"fips": 19121,
		"county": "Madison",
		"square_km": "1.455,98",
		"lat": 41.330622,
		"lng": -94.015184
	},
	{
		"state_abr": "IA",
		"fips": 1949,
		"county": "Dallas",
		"square_km": "1.532,49",
		"lat": 41.685321,
		"lng": -94.040707
	},
	{
		"state_abr": "IA",
		"fips": 19187,
		"county": "Webster",
		"square_km": "1.860,72",
		"lat": 42.434397,
		"lng": -94.179157
	},
	{
		"state_abr": "IA",
		"fips": 1991,
		"county": "Humboldt",
		"square_km": "1.128,37",
		"lat": 42.782221,
		"lng": -94.202775
	},
	{
		"state_abr": "IA",
		"fips": 19109,
		"county": "Kossuth",
		"square_km": "2.523,49",
		"lat": 43.212478,
		"lng": -94.213983
	},
	{
		"state_abr": "IA",
		"fips": 19159,
		"county": "Ringgold",
		"square_km": "1.395,66",
		"lat": 40.735334,
		"lng": -94.244251
	},
	{
		"state_abr": "IA",
		"fips": 19175,
		"county": "Union",
		"square_km": "1.102,81",
		"lat": 41.02855,
		"lng": -94.245091
	},
	{
		"state_abr": "IA",
		"fips": 1973,
		"county": "Greene",
		"square_km": "1.479,44",
		"lat": 42.042494,
		"lng": -94.388703
	},
	{
		"state_abr": "IA",
		"fips": 191,
		"county": "Adair",
		"square_km": "1.477,00",
		"lat": 41.328528,
		"lng": -94.478164
	},
	{
		"state_abr": "IA",
		"fips": 1977,
		"county": "Guthrie",
		"square_km": "1.536,06",
		"lat": 41.683573,
		"lng": -94.501272
	},
	{
		"state_abr": "IA",
		"fips": 1925,
		"county": "Calhoun",
		"square_km": "1.481,77",
		"lat": 42.38617,
		"lng": -94.643683
	},
	{
		"state_abr": "IA",
		"fips": 19147,
		"county": "Palo Alto",
		"square_km": "1.474,83",
		"lat": 43.075854,
		"lng": -94.667297
	},
	{
		"state_abr": "IA",
		"fips": 1963,
		"county": "Emmet",
		"square_km": "1.042,53",
		"lat": 43.377984,
		"lng": -94.66937
	},
	{
		"state_abr": "IA",
		"fips": 19151,
		"county": "Pocahontas",
		"square_km": "1.498,71",
		"lat": 42.734033,
		"lng": -94.678279
	},
	{
		"state_abr": "IA",
		"fips": 193,
		"county": "Adams",
		"square_km": "1.102,05",
		"lat": 41.021656,
		"lng": -94.696906
	},
	{
		"state_abr": "IA",
		"fips": 19173,
		"county": "Taylor",
		"square_km": "1.384,75",
		"lat": 40.737949,
		"lng": -94.697108
	},
	{
		"state_abr": "IA",
		"fips": 1927,
		"county": "Carroll",
		"square_km": "1.476,98",
		"lat": 42.039492,
		"lng": -94.867647
	},
	{
		"state_abr": "IA",
		"fips": 199,
		"county": "Audubon",
		"square_km": "1.148,42",
		"lat": 41.679178,
		"lng": -94.904312
	},
	{
		"state_abr": "IA",
		"fips": 1929,
		"county": "Cass",
		"square_km": "1.463,21",
		"lat": 41.333824,
		"lng": -94.933302
	},
	{
		"state_abr": "IA",
		"fips": 19161,
		"county": "Sac",
		"square_km": "1.497,87",
		"lat": 42.387526,
		"lng": -95.105224
	},
	{
		"state_abr": "IA",
		"fips": 1921,
		"county": "Buena Vista",
		"square_km": "1.502,78",
		"lat": 42.741522,
		"lng": -95.141433
	},
	{
		"state_abr": "IA",
		"fips": 19145,
		"county": "Page",
		"square_km": "1.386,85",
		"lat": 40.73909,
		"lng": -95.14429
	},
	{
		"state_abr": "IA",
		"fips": 1941,
		"county": "Clay",
		"square_km": "1.483,01",
		"lat": 43.079822,
		"lng": -95.149726
	},
	{
		"state_abr": "IA",
		"fips": 19137,
		"county": "Montgomery",
		"square_km": "1.100,82",
		"lat": 41.021735,
		"lng": -95.15779
	},
	{
		"state_abr": "IA",
		"fips": 1959,
		"county": "Dickinson",
		"square_km": "1.046,26",
		"lat": 43.389611,
		"lng": -95.196057
	},
	{
		"state_abr": "IA",
		"fips": 19165,
		"county": "Shelby",
		"square_km": "1.531,60",
		"lat": 41.679014,
		"lng": -95.308917
	},
	{
		"state_abr": "IA",
		"fips": 1947,
		"county": "Crawford",
		"square_km": "1.851,94",
		"lat": 42.043119,
		"lng": -95.38909
	},
	{
		"state_abr": "IA",
		"fips": 1993,
		"county": "Ida",
		"square_km": "1.119,01",
		"lat": 42.39186,
		"lng": -95.507421
	},
	{
		"state_abr": "IA",
		"fips": 19155,
		"county": "Pottawattamie",
		"square_km": "2.484,14",
		"lat": 41.340184,
		"lng": -95.544905
	},
	{
		"state_abr": "IA",
		"fips": 1971,
		"county": "Fremont",
		"square_km": "1.338,09",
		"lat": 40.743726,
		"lng": -95.599516
	},
	{
		"state_abr": "IA",
		"fips": 19129,
		"county": "Mills",
		"square_km": "1.141,26",
		"lat": 41.033703,
		"lng": -95.619101
	},
	{
		"state_abr": "IA",
		"fips": 19141,
		"county": "OBrien",
		"square_km": "1.484,60",
		"lat": 43.083746,
		"lng": -95.625624
	},
	{
		"state_abr": "IA",
		"fips": 1935,
		"county": "Cherokee",
		"square_km": "1.494,60",
		"lat": 42.742738,
		"lng": -95.633262
	},
	{
		"state_abr": "IA",
		"fips": 19143,
		"county": "Osceola",
		"square_km": "1.034,42",
		"lat": 43.378542,
		"lng": -95.633788
	},
	{
		"state_abr": "IA",
		"fips": 1985,
		"county": "Harrison",
		"square_km": "1.817,25",
		"lat": 41.688584,
		"lng": -95.827149
	},
	{
		"state_abr": "IA",
		"fips": 19133,
		"county": "Monona",
		"square_km": "1.810,23",
		"lat": 42.049432,
		"lng": -95.956566
	},
	{
		"state_abr": "IA",
		"fips": 19193,
		"county": "Woodbury",
		"square_km": "2.273,42",
		"lat": 42.39322,
		"lng": -96.053296
	},
	{
		"state_abr": "IA",
		"fips": 19167,
		"county": "Sioux",
		"square_km": "1.991,68",
		"lat": 43.082854,
		"lng": -96.177929
	},
	{
		"state_abr": "IA",
		"fips": 19119,
		"county": "Lyon",
		"square_km": "1.522,34",
		"lat": 43.38358,
		"lng": -96.207201
	},
	{
		"state_abr": "IA",
		"fips": 19149,
		"county": "Plymouth",
		"square_km": "2.237,06",
		"lat": 42.737585,
		"lng": -96.215864
	},
	{
		"state_abr": "ID",
		"fips": 1681,
		"county": "Teton",
		"square_km": "1.166,94",
		"lat": 43.760994,
		"lng": -111.211765
	},
	{
		"state_abr": "ID",
		"fips": 167,
		"county": "Bear Lake",
		"square_km": "2.717,96",
		"lat": 42.285833,
		"lng": -111.327445
	},
	{
		"state_abr": "ID",
		"fips": 1643,
		"county": "Fremont",
		"square_km": "4.909,80",
		"lat": 44.218091,
		"lng": -111.484429
	},
	{
		"state_abr": "ID",
		"fips": 1629,
		"county": "Caribou",
		"square_km": "4.658,29",
		"lat": 42.786273,
		"lng": -111.544172
	},
	{
		"state_abr": "ID",
		"fips": 1619,
		"county": "Bonneville",
		"square_km": "4.922,62",
		"lat": 43.395171,
		"lng": -111.621878
	},
	{
		"state_abr": "ID",
		"fips": 1665,
		"county": "Madison",
		"square_km": "1.225,65",
		"lat": 43.789709,
		"lng": -111.65655
	},
	{
		"state_abr": "ID",
		"fips": 1641,
		"county": "Franklin",
		"square_km": "1.731,00",
		"lat": 42.173589,
		"lng": -111.822955
	},
	{
		"state_abr": "ID",
		"fips": 165,
		"county": "Bannock",
		"square_km": "2.971,84",
		"lat": 42.692939,
		"lng": -112.228986
	},
	{
		"state_abr": "ID",
		"fips": 1651,
		"county": "Jefferson",
		"square_km": "2.863,42",
		"lat": 43.796965,
		"lng": -112.318588
	},
	{
		"state_abr": "ID",
		"fips": 1633,
		"county": "Clark",
		"square_km": "4.571,70",
		"lat": 44.286251,
		"lng": -112.36112
	},
	{
		"state_abr": "ID",
		"fips": 1611,
		"county": "Bingham",
		"square_km": "5.491,83",
		"lat": 43.216357,
		"lng": -112.399206
	},
	{
		"state_abr": "ID",
		"fips": 1671,
		"county": "Oneida",
		"square_km": "3.112,14",
		"lat": 42.18389,
		"lng": -112.520465
	},
	{
		"state_abr": "ID",
		"fips": 1677,
		"county": "Power",
		"square_km": "3.736,49",
		"lat": 42.694126,
		"lng": -112.844407
	},
	{
		"state_abr": "ID",
		"fips": 1623,
		"county": "Butte",
		"square_km": "5.785,25",
		"lat": 43.6851,
		"lng": -113.177627
	},
	{
		"state_abr": "ID",
		"fips": 1631,
		"county": "Cassia",
		"square_km": "6.682,90",
		"lat": 42.288635,
		"lng": -113.605498
	},
	{
		"state_abr": "ID",
		"fips": 1667,
		"county": "Minidoka",
		"square_km": "1.975,97",
		"lat": 42.856937,
		"lng": -113.64001
	},
	{
		"state_abr": "ID",
		"fips": 1659,
		"county": "Lemhi",
		"square_km": "11.833,01",
		"lat": 44.928789,
		"lng": -113.887841
	},
	{
		"state_abr": "ID",
		"fips": 1613,
		"county": "Blaine",
		"square_km": "6.891,20",
		"lat": 43.394482,
		"lng": -113.95529
	},
	{
		"state_abr": "ID",
		"fips": 1663,
		"county": "Lincoln",
		"square_km": "3.123,23",
		"lat": 42.986181,
		"lng": -114.153899
	},
	{
		"state_abr": "ID",
		"fips": 1637,
		"county": "Custer",
		"square_km": "12.787,56",
		"lat": 44.273341,
		"lng": -114.252251
	},
	{
		"state_abr": "ID",
		"fips": 1653,
		"county": "Jerome",
		"square_km": "1.559,57",
		"lat": 42.691172,
		"lng": -114.263009
	},
	{
		"state_abr": "ID",
		"fips": 1683,
		"county": "Twin Falls",
		"square_km": "4.994,34",
		"lat": 42.352309,
		"lng": -114.665639
	},
	{
		"state_abr": "ID",
		"fips": 1625,
		"county": "Camas",
		"square_km": "2.794,46",
		"lat": 43.463396,
		"lng": -114.804427
	},
	{
		"state_abr": "ID",
		"fips": 1647,
		"county": "Gooding",
		"square_km": "1.900,32",
		"lat": 42.973185,
		"lng": -114.82142
	},
	{
		"state_abr": "ID",
		"fips": 1649,
		"county": "Idaho",
		"square_km": "22.023,58",
		"lat": 45.849237,
		"lng": -115.467376
	},
	{
		"state_abr": "ID",
		"fips": 1639,
		"county": "Elmore",
		"square_km": "8.030,92",
		"lat": 43.394826,
		"lng": -115.470751
	},
	{
		"state_abr": "ID",
		"fips": 1685,
		"county": "Valley",
		"square_km": "9.668,32",
		"lat": 44.771532,
		"lng": -115.637875
	},
	{
		"state_abr": "ID",
		"fips": 1635,
		"county": "Clearwater",
		"square_km": "6.443,85",
		"lat": 46.67257,
		"lng": -115.6535
	},
	{
		"state_abr": "ID",
		"fips": 1615,
		"county": "Boise",
		"square_km": "4.938,29",
		"lat": 43.987275,
		"lng": -115.715111
	},
	{
		"state_abr": "ID",
		"fips": 1679,
		"county": "Shoshone",
		"square_km": "6.824,94",
		"lat": 47.347694,
		"lng": -115.885092
	},
	{
		"state_abr": "ID",
		"fips": 1673,
		"county": "Owyhee",
		"square_km": "19.935,09",
		"lat": 42.593063,
		"lng": -116.142655
	},
	{
		"state_abr": "ID",
		"fips": 161,
		"county": "Ada",
		"square_km": "2.746,58",
		"lat": 43.447861,
		"lng": -116.244456
	},
	{
		"state_abr": "ID",
		"fips": 1645,
		"county": "Gem",
		"square_km": "1.465,17",
		"lat": 44.061473,
		"lng": -116.398784
	},
	{
		"state_abr": "ID",
		"fips": 1661,
		"county": "Lewis",
		"square_km": "1.242,52",
		"lat": 46.236328,
		"lng": -116.42376
	},
	{
		"state_abr": "ID",
		"fips": 163,
		"county": "Adams",
		"square_km": "3.547,69",
		"lat": 44.884583,
		"lng": -116.431873
	},
	{
		"state_abr": "ID",
		"fips": 1621,
		"county": "Boundary",
		"square_km": "3.309,64",
		"lat": 48.773065,
		"lng": -116.524619
	},
	{
		"state_abr": "ID",
		"fips": 1617,
		"county": "Bonner",
		"square_km": "4.971,48",
		"lat": 48.312512,
		"lng": -116.59694
	},
	{
		"state_abr": "ID",
		"fips": 169,
		"county": "Benewah",
		"square_km": "2.030,42",
		"lat": 47.218451,
		"lng": -116.633541
	},
	{
		"state_abr": "ID",
		"fips": 1655,
		"county": "Kootenai",
		"square_km": "3.407,45",
		"lat": 47.677113,
		"lng": -116.694918
	},
	{
		"state_abr": "ID",
		"fips": 1627,
		"county": "Canyon",
		"square_km": "1.563,18",
		"lat": 43.623051,
		"lng": -116.708527
	},
	{
		"state_abr": "ID",
		"fips": 1657,
		"county": "Latah",
		"square_km": "2.789,19",
		"lat": 46.81892,
		"lng": -116.730974
	},
	{
		"state_abr": "ID",
		"fips": 1675,
		"county": "Payette",
		"square_km": "1.062,61",
		"lat": 44.00274,
		"lng": -116.748655
	},
	{
		"state_abr": "ID",
		"fips": 1669,
		"county": "Nez Perce",
		"square_km": "2.217,76",
		"lat": 46.333766,
		"lng": -116.760903
	},
	{
		"state_abr": "ID",
		"fips": 1687,
		"county": "Washington",
		"square_km": "3.816,42",
		"lat": 44.448213,
		"lng": -116.79783
	},
	{
		"state_abr": "IL",
		"fips": 1797,
		"county": "Lake",
		"square_km": "3.544,34",
		"lat": 42.326444,
		"lng": -87.436118
	},
	{
		"state_abr": "IL",
		"fips": 1731,
		"county": "Cook",
		"square_km": "4.234,27",
		"lat": 41.894294,
		"lng": -87.645455
	},
	{
		"state_abr": "IL",
		"fips": 17183,
		"county": "Vermilion",
		"square_km": "2.334,30",
		"lat": 40.18674,
		"lng": -87.726772
	},
	{
		"state_abr": "IL",
		"fips": 17101,
		"county": "Lawrence",
		"square_km": "969,015",
		"lat": 38.718954,
		"lng": -87.730221
	},
	{
		"state_abr": "IL",
		"fips": 1745,
		"county": "Edgar",
		"square_km": "1.616,14",
		"lat": 39.679037,
		"lng": -87.74711
	},
	{
		"state_abr": "IL",
		"fips": 1733,
		"county": "Crawford",
		"square_km": "1.154,67",
		"lat": 39.00373,
		"lng": -87.757172
	},
	{
		"state_abr": "IL",
		"fips": 1723,
		"county": "Clark",
		"square_km": "1.307,47",
		"lat": 39.332364,
		"lng": -87.791687
	},
	{
		"state_abr": "IL",
		"fips": 1775,
		"county": "Iroquois",
		"square_km": "2.898,01",
		"lat": 40.748867,
		"lng": -87.833601
	},
	{
		"state_abr": "IL",
		"fips": 17185,
		"county": "Wabash",
		"square_km": "589,237",
		"lat": 38.445821,
		"lng": -87.839167
	},
	{
		"state_abr": "IL",
		"fips": 1791,
		"county": "Kankakee",
		"square_km": "1.764,72",
		"lat": 41.139494,
		"lng": -87.861125
	},
	{
		"state_abr": "IL",
		"fips": 17197,
		"county": "Will",
		"square_km": "2.199,49",
		"lat": 41.448474,
		"lng": -87.978456
	},
	{
		"state_abr": "IL",
		"fips": 1747,
		"county": "Edwards",
		"square_km": "576,843",
		"lat": 38.417095,
		"lng": -88.047941
	},
	{
		"state_abr": "IL",
		"fips": 17159,
		"county": "Richland",
		"square_km": "937,308",
		"lat": 38.71155,
		"lng": -88.085698
	},
	{
		"state_abr": "IL",
		"fips": 1743,
		"county": "DuPage",
		"square_km": "871,302",
		"lat": 41.852058,
		"lng": -88.086038
	},
	{
		"state_abr": "IL",
		"fips": 1779,
		"county": "Jasper",
		"square_km": "1.290,12",
		"lat": 39.004874,
		"lng": -88.150763
	},
	{
		"state_abr": "IL",
		"fips": 17193,
		"county": "White",
		"square_km": "1.299,81",
		"lat": 38.087372,
		"lng": -88.178585
	},
	{
		"state_abr": "IL",
		"fips": 1719,
		"county": "Champaign",
		"square_km": "2.585,83",
		"lat": 40.13915,
		"lng": -88.197201
	},
	{
		"state_abr": "IL",
		"fips": 1729,
		"county": "Coles",
		"square_km": "1.321,09",
		"lat": 39.51368,
		"lng": -88.220782
	},
	{
		"state_abr": "IL",
		"fips": 1741,
		"county": "Douglas",
		"square_km": "1.080,61",
		"lat": 39.766078,
		"lng": -88.222866
	},
	{
		"state_abr": "IL",
		"fips": 1753,
		"county": "Ford",
		"square_km": "1.259,36",
		"lat": 40.594423,
		"lng": -88.224746
	},
	{
		"state_abr": "IL",
		"fips": 1759,
		"county": "Gallatin",
		"square_km": "849,989",
		"lat": 37.768677,
		"lng": -88.227964
	},
	{
		"state_abr": "IL",
		"fips": 1735,
		"county": "Cumberland",
		"square_km": "898,734",
		"lat": 39.273121,
		"lng": -88.240619
	},
	{
		"state_abr": "IL",
		"fips": 1769,
		"county": "Hardin",
		"square_km": "470,286",
		"lat": 37.517852,
		"lng": -88.266148
	},
	{
		"state_abr": "IL",
		"fips": 1763,
		"county": "Grundy",
		"square_km": "1.114,85",
		"lat": 41.29241,
		"lng": -88.401055
	},
	{
		"state_abr": "IL",
		"fips": 1789,
		"county": "Kane",
		"square_km": "1.357,67",
		"lat": 41.939594,
		"lng": -88.42804
	},
	{
		"state_abr": "IL",
		"fips": 1793,
		"county": "Kendall",
		"square_km": "834,805",
		"lat": 41.58814,
		"lng": -88.430626
	},
	{
		"state_abr": "IL",
		"fips": 17191,
		"county": "Wayne",
		"square_km": "1.853,10",
		"lat": 38.431948,
		"lng": -88.432129
	},
	{
		"state_abr": "IL",
		"fips": 17111,
		"county": "McHenry",
		"square_km": "1.582,00",
		"lat": 42.324298,
		"lng": -88.452245
	},
	{
		"state_abr": "IL",
		"fips": 1725,
		"county": "Clay",
		"square_km": "1.216,24",
		"lat": 38.747312,
		"lng": -88.483789
	},
	{
		"state_abr": "IL",
		"fips": 1765,
		"county": "Hamilton",
		"square_km": "1.128,95",
		"lat": 38.085226,
		"lng": -88.539005
	},
	{
		"state_abr": "IL",
		"fips": 17151,
		"county": "Pope",
		"square_km": "969,439",
		"lat": 37.417169,
		"lng": -88.542374
	},
	{
		"state_abr": "IL",
		"fips": 17165,
		"county": "Saline",
		"square_km": "1.001,76",
		"lat": 37.751653,
		"lng": -88.545031
	},
	{
		"state_abr": "IL",
		"fips": 17105,
		"county": "Livingston",
		"square_km": "2.708,94",
		"lat": 40.894376,
		"lng": -88.552852
	},
	{
		"state_abr": "IL",
		"fips": 17147,
		"county": "Piatt",
		"square_km": "1.138,20",
		"lat": 40.009056,
		"lng": -88.592328
	},
	{
		"state_abr": "IL",
		"fips": 1749,
		"county": "Effingham",
		"square_km": "1.243,21",
		"lat": 39.047694,
		"lng": -88.592786
	},
	{
		"state_abr": "IL",
		"fips": 17139,
		"county": "Moultrie",
		"square_km": "892,191",
		"lat": 39.636896,
		"lng": -88.625726
	},
	{
		"state_abr": "IL",
		"fips": 17127,
		"county": "Massac",
		"square_km": "626,295",
		"lat": 37.216119,
		"lng": -88.705658
	},
	{
		"state_abr": "IL",
		"fips": 1737,
		"county": "DeKalb",
		"square_km": "1.643,76",
		"lat": 41.894613,
		"lng": -88.768991
	},
	{
		"state_abr": "IL",
		"fips": 17173,
		"county": "Shelby",
		"square_km": "1.989,29",
		"lat": 39.384926,
		"lng": -88.798862
	},
	{
		"state_abr": "IL",
		"fips": 177,
		"county": "Boone",
		"square_km": "730,441",
		"lat": 42.318983,
		"lng": -88.824295
	},
	{
		"state_abr": "IL",
		"fips": 17113,
		"county": "McLean",
		"square_km": "3.072,42",
		"lat": 40.494559,
		"lng": -88.844539
	},
	{
		"state_abr": "IL",
		"fips": 1787,
		"county": "Johnson",
		"square_km": "903,552",
		"lat": 37.460815,
		"lng": -88.882962
	},
	{
		"state_abr": "IL",
		"fips": 1799,
		"county": "La Salle",
		"square_km": "2.973,66",
		"lat": 41.343341,
		"lng": -88.885931
	},
	{
		"state_abr": "IL",
		"fips": 1739,
		"county": "De Witt",
		"square_km": "1.049,16",
		"lat": 40.181499,
		"lng": -88.901853
	},
	{
		"state_abr": "IL",
		"fips": 17121,
		"county": "Marion",
		"square_km": "1.491,93",
		"lat": 38.648396,
		"lng": -88.920221
	},
	{
		"state_abr": "IL",
		"fips": 1781,
		"county": "Jefferson",
		"square_km": "1.511,99",
		"lat": 38.30078,
		"lng": -88.92421
	},
	{
		"state_abr": "IL",
		"fips": 1755,
		"county": "Franklin",
		"square_km": "1.117,44",
		"lat": 37.991848,
		"lng": -88.926246
	},
	{
		"state_abr": "IL",
		"fips": 17199,
		"county": "Williamson",
		"square_km": "1.150,87",
		"lat": 37.730353,
		"lng": -88.930018
	},
	{
		"state_abr": "IL",
		"fips": 17115,
		"county": "Macon",
		"square_km": "1.517,38",
		"lat": 39.860237,
		"lng": -88.961529
	},
	{
		"state_abr": "IL",
		"fips": 1751,
		"county": "Fayette",
		"square_km": "1.878,63",
		"lat": 39.001125,
		"lng": -89.017923
	},
	{
		"state_abr": "IL",
		"fips": 17153,
		"county": "Pulaski",
		"square_km": "526,361",
		"lat": 37.215615,
		"lng": -89.127755
	},
	{
		"state_abr": "IL",
		"fips": 17201,
		"county": "Winnebago",
		"square_km": "1.344,85",
		"lat": 42.337396,
		"lng": -89.161205
	},
	{
		"state_abr": "IL",
		"fips": 17203,
		"county": "Woodford",
		"square_km": "1.405,44",
		"lat": 40.789596,
		"lng": -89.210301
	},